City_ID,City,Lat,Lng,Max Temp,Humidity,Cloudiness,Wind Speed,Country,Date
0,papatowai,-46.5619,169.4708,290.62,59,100,3.08,NZ,1701480997
1,bredasdorp,-34.5322,20.0403,288.22,83,1,2.14,ZA,1701480702
2,port-aux-francais,-49.35,70.2167,277.51,91,100,12.19,TF,1701480997
3,invercargill,-46.4,168.35,286.4,75,100,2.77,NZ,1701480997
4,longyearbyen,78.2186,15.6401,266.06,68,75,7.72,SJ,1701480720
5,west island,-12.1568,96.8225,300.14,69,11,4.63,CC,1701480415
6,usogorsk,63.4106,48.6872,261.3,98,100,1.97,RU,1701480998
7,grytviken,-54.2811,-36.5092,275.42,81,23,5.37,GS,1701480998
8,askoy,60.4092,5.226,271.34,100,75,2.57,NO,1701480998
9,alice springs,-23.7,133.8833,301.9,34,0,5.14,AU,1701480364
10,waitangi,-43.9535,-176.5597,286.94,59,5,2.96,NZ,1701480998
11,bikenibeu village,1.3673,173.1241,304.13,74,75,4.12,KI,1701480403
12,hawaiian paradise park,19.5933,-154.9731,298.88,86,75,4.12,US,1701480999
13,puerto ayora,-0.7393,-90.3518,297.9,92,100,4.47,EC,1701480999
14,torghay,49.6339,63.4981,273.21,69,100,4.2,KZ,1701480423
15,lamu,-2.2717,40.902,298.27,85,37,2.41,KE,1701480999
16,chibuto,-24.6867,33.5306,289.09,81,0,1.56,MZ,1701480999
17,adamstown,-25.066,-130.1015,295.42,75,0,5.24,PN,1701481000
18,georgetown,5.4112,100.3354,300.34,89,40,1.54,MY,1701480413
19,whitehorse,60.7161,-135.0538,261.58,92,40,1.03,CA,1701480405
20,badger,64.8,-147.5333,255.08,83,20,0.0,US,1701480401
21,alo,7.4178,6.7371,298.16,68,92,1.45,NG,1701481000
22,pisco,-13.7,-76.2167,293.18,83,0,7.72,PE,1701480405
23,edinburgh of the seven seas,-37.0676,-12.3116,286.49,76,89,7.39,SH,1701481001
24,lompoc,34.6391,-120.4579,289.23,75,0,9.26,US,1701480401
25,tirukkoyilur,11.95,79.2,296.81,86,100,4.31,IN,1701481001
26,aginskoye,51.1,114.53,262.55,74,16,2.42,RU,1701481001
27,taoudenni,22.6783,-3.9836,294.09,13,8,0.63,ML,1701480425
28,sao joao da barra,-21.6403,-41.0511,296.39,93,3,2.74,BR,1701481001
29,mollendo,-17.0231,-72.0147,292.6,83,72,3.07,PE,1701481002
30,iqaluit,63.7506,-68.5145,268.0,62,75,10.29,CA,1701481002
31,wailua homesteads,22.0669,-159.378,299.39,87,0,3.6,US,1701481002
32,fada,9.5667,8.3,294.34,23,100,3.37,NG,1701481002
33,ust'-ilimsk,58.0006,102.6619,265.62,94,100,2.68,RU,1701481002
34,tralee,52.2704,-9.7026,277.3,83,96,1.18,IE,1701480444
35,ushuaia,-54.8,-68.3,277.96,81,40,4.63,AR,1701481003
36,guerrero negro,27.9769,-114.0611,291.08,60,0,7.98,MX,1701480462
37,yellowknife,62.456,-114.3525,254.44,84,100,3.6,CA,1701481003
38,ust-nera,64.5667,143.2,245.01,99,100,0.94,RU,1701480407
39,el calafate,-50.3408,-72.2768,279.35,50,86,5.03,AR,1701480445
40,freetown,8.484,-13.2299,299.53,86,100,2.03,SL,1701481004
41,hermanus,-34.4187,19.2345,289.41,84,10,2.73,ZA,1701480406
42,codrington,-38.2667,141.9667,290.31,64,28,6.32,AU,1701481004
43,bandarbeyla,9.4942,50.8122,298.3,70,20,9.03,SO,1701481004
44,mukalla,14.5425,49.1242,296.9,54,0,1.92,YE,1701480425
45,usakos,-22.0,15.6,297.17,47,97,1.79,NA,1701481004
46,talara,-4.5772,-81.2719,294.57,83,40,5.14,PE,1701481004
47,rexburg,43.826,-111.7897,271.14,71,100,8.23,US,1701481005
48,san rafael,-34.6177,-68.3301,295.94,31,1,3.14,AR,1701481005
49,ilulissat,69.2167,-51.1,274.16,44,26,8.23,GL,1701481005
50,klyuchi,52.2667,79.1667,271.87,73,100,5.76,RU,1701481005
51,santa cruz,-17.8,-63.1667,299.85,78,40,5.66,BO,1701480744
52,lycksele,64.5954,18.6735,260.08,92,100,1.03,SE,1701481005
53,hastings,50.8552,0.5729,273.7,93,57,4.52,GB,1701481006
54,beloyarskiy,63.7119,66.6722,251.58,99,93,1.37,RU,1701481006
55,bamboo flat,11.7,92.7167,301.2,83,75,2.57,IN,1701481006
56,olonkinbyen,70.9221,-8.7187,271.34,71,80,4.79,SJ,1701480709
57,afaahiti,-17.75,-149.2833,303.08,86,51,7.2,PF,1701480755
58,kotabumi,-4.8333,104.9,303.57,63,48,2.56,ID,1701481006
59,albany,42.6001,-73.9662,279.39,87,100,0.89,US,1701481006
60,utrik,11.2278,169.8474,300.42,77,100,9.75,MH,1701481007
61,puerto natales,-51.7236,-72.4875,275.92,97,92,4.0,CL,1701481007
62,crane,31.3974,-102.3501,288.13,35,100,2.63,US,1701480413
63,pathein,16.7833,94.7333,297.91,68,100,4.83,MM,1701481007
64,port mathurin,-19.6833,63.4167,298.81,80,26,6.14,MU,1701481007
65,kuta,-8.7233,115.1723,301.12,83,40,1.03,ID,1701481007
66,kruisfontein,-34.0033,24.7314,290.86,87,89,2.64,ZA,1701480477
67,talnakh,69.4865,88.3972,249.93,89,6,2.44,RU,1701480408
68,mugia,43.1041,-9.2179,281.99,72,44,4.63,ES,1701481008
69,haiku-pauwela,20.9219,-156.3051,299.16,77,75,5.14,US,1701480770
70,weno,7.4515,151.8468,301.89,73,21,7.9,FM,1701480409
71,petropavlovsk-kamchatsky,53.0452,158.6483,268.48,81,0,7.6,RU,1701481008
72,ribeira grande,38.5167,-28.7,290.8,87,100,7.6,PT,1701481008
73,tazovsky,67.4667,78.7,259.03,95,100,3.05,RU,1701480409
74,college,64.8569,-147.8028,255.12,79,20,0.0,US,1701481008
75,tiksi,71.6872,128.8694,243.96,98,100,2.49,RU,1701481008
76,nikolayevsk-on-amure,53.1406,140.73,258.99,82,100,2.32,RU,1701480444
77,saipan,15.1355,145.701,297.54,100,100,4.12,MP,1701480426
78,cochrane,51.1834,-114.4687,271.73,43,20,5.66,CA,1701480912
79,nuuk,64.1835,-51.7216,273.49,93,100,2.57,GL,1701480812
80,amuntai,-2.4177,115.2494,301.0,80,100,1.02,ID,1701481009
81,mariental,-24.6333,17.9667,298.06,33,100,4.19,NA,1701481009
82,north bend,43.4065,-124.2243,284.1,87,75,3.09,US,1701480471
83,bandipura,34.4167,74.65,275.01,65,0,2.94,IN,1701481010
84,bilibino,68.0546,166.4372,247.5,95,100,1.79,RU,1701481010
85,riyadh,24.6877,46.7219,287.23,37,0,2.77,SA,1701480909
86,hamilton,39.1834,-84.5333,285.13,95,100,4.63,US,1701480751
87,emporia,38.4039,-96.1817,274.26,80,0,0.0,US,1701481010
88,margaret river,-33.95,115.0667,293.61,66,100,3.81,AU,1701481010
89,hovd,48.0056,91.6419,263.37,72,21,0.83,MN,1701480466
90,saldanha,-33.0117,17.9442,290.09,84,0,2.69,ZA,1701480424
91,nova sintra,14.8667,-24.7167,295.95,75,100,4.69,CV,1701481011
92,kingston,17.997,-76.7936,301.68,79,20,3.6,JM,1701480141
93,north platte,41.1239,-100.7654,271.14,71,0,2.24,US,1701480983
94,ciudad tula,23.0,-99.7167,293.06,31,100,2.19,MX,1701481011
95,atar,20.5169,-13.0499,294.56,37,89,1.43,MR,1701481011
96,suva,-18.1416,178.4415,303.86,66,75,5.14,FJ,1701481011
97,axminster,50.7826,-2.9979,273.81,95,12,3.13,GB,1701481011
98,susuman,62.7833,148.1667,248.3,98,100,1.56,RU,1701480415
99,bethel,41.3712,-73.414,280.67,87,100,3.6,US,1701481012
100,humaita,-7.5061,-63.0208,297.11,96,100,0.52,BR,1701481012
101,port elizabeth,-33.918,25.5701,292.31,81,0,4.63,ZA,1701481012
102,kutum,14.2,24.6667,291.13,26,0,3.9,SD,1701480319
103,isafjordur,66.0755,-23.124,269.26,82,68,1.02,IS,1701480437
104,avarua,-21.2078,-159.775,300.18,83,100,6.17,CK,1701480416
105,desnogorsk,54.1508,33.2815,265.82,95,100,3.0,RU,1701481013
106,onega,63.9061,38.1404,263.6,95,100,1.21,RU,1701481013
107,fale old settlement,-9.3852,-171.2468,301.51,78,56,3.64,TK,1701481013
108,sandnessjoen,66.0217,12.6316,269.98,77,66,4.54,NO,1701480418
109,goundam,16.4145,-3.6708,298.53,17,61,4.7,ML,1701481013
110,primorsko-akhtarsk,46.0497,38.1747,286.57,73,92,10.83,RU,1701481013
111,bridgewater,44.3835,-64.5155,280.94,92,100,2.57,CA,1701480442
112,lazaro cardenas,17.9583,-102.2,299.25,73,100,1.78,MX,1701481013
113,taltal,-25.4,-70.4833,291.46,73,0,0.79,CL,1701480743
114,ust-tsilma,65.441,52.1498,265.16,98,100,0.45,RU,1701481014
115,inhambane,-23.865,35.3833,294.47,65,35,2.08,MZ,1701481014
116,pacific grove,36.6177,-121.9166,287.32,79,0,4.92,US,1701481014
117,toliara,-23.35,43.6667,293.82,67,0,6.25,MG,1701480440
118,urangan,-25.3,152.9,299.16,83,43,9.1,AU,1701481014
119,tianfu,37.1936,122.0511,277.23,29,0,3.12,CN,1701481014
120,ancud,-41.8697,-73.8203,280.98,77,100,4.89,CL,1701480468
121,colonia,50.9333,6.95,272.57,71,100,2.06,DE,1701480146
122,new plymouth,-39.0667,174.0833,290.55,65,100,2.86,NZ,1701480876
123,diplo,24.4667,69.584,292.5,47,0,4.84,PK,1701481015
124,blackmans bay,-43.0167,147.3167,291.22,67,100,2.89,AU,1701481015
125,hirado,33.3597,129.5531,282.81,52,5,4.06,JP,1701481015
126,dudinka,69.4058,86.1778,250.16,93,15,5.75,RU,1701480426
127,fort bragg,35.139,-79.006,293.06,87,100,3.6,US,1701480461
128,bhachau,23.2833,70.35,294.45,57,0,6.94,IN,1701481016
129,taishan,22.2514,112.7799,289.78,56,100,4.09,CN,1701481016
130,rouissat,31.9243,5.3502,286.19,24,0,3.09,DZ,1701481016
131,prince rupert,54.3161,-130.3201,278.98,91,100,17.49,CA,1701481016
132,san antonio de pale,-1.4014,5.6325,299.96,80,100,4.19,GQ,1701480446
133,safford,32.834,-109.7076,282.1,79,75,3.09,US,1701481017
134,umm kaddadah,13.6017,26.6876,294.3,22,0,6.92,SD,1701481017
135,dwarka,22.2394,68.9678,296.25,61,0,8.18,IN,1701481017
136,kapa'a,22.0752,-159.319,300.14,87,0,3.6,US,1701480465
137,mercedes,-34.6515,-59.4307,292.51,93,63,1.78,AR,1701481017
138,ketchikan,55.3422,-131.6461,278.41,75,100,5.66,US,1701481017
139,marsh harbour,26.5412,-77.0636,298.41,84,95,6.94,BS,1701481018
140,san mariano,7.5,126.0,299.67,81,84,2.02,PH,1701480428
141,la junta,37.985,-103.5438,270.31,68,20,2.06,US,1701480741
142,dzhangala,49.2167,50.3333,280.22,86,100,13.88,KZ,1701481018
143,dublin,37.7021,-121.9358,286.62,73,0,4.12,US,1701481018
144,stanley,54.868,-1.6985,266.16,93,11,1.03,GB,1701481018
145,jamestown,42.097,-79.2353,279.27,99,100,2.06,US,1701480814
146,kolpashevo,58.3131,82.9089,263.77,98,100,1.79,RU,1701481019
147,dongola,19.1667,30.4833,292.55,24,0,6.16,SD,1701481020
148,rio grande,-32.035,-52.0986,296.45,93,100,7.69,BR,1701481020
149,kralendijk,12.15,-68.2667,301.14,78,20,5.14,BQ,1701481020
150,obo,5.3998,26.4869,294.77,87,7,0.72,CF,1701481020
151,palmer,42.1584,-72.3287,280.47,83,100,2.06,US,1701481020
152,arias,-33.6441,-62.4027,292.9,80,0,2.97,AR,1701481020
153,kill devil hills,36.0307,-75.676,293.15,78,100,7.2,US,1701481021
154,udachny,66.4167,112.4,242.84,74,100,3.09,RU,1701481021
155,zheleznogorsk,52.331,35.3711,264.3,98,100,1.89,RU,1701481021
156,oroqen zizhiqi,50.5667,123.7167,260.04,65,6,1.24,CN,1701481021
157,beidaihehaibin,39.8222,119.5181,275.34,30,0,3.24,CN,1701481021
158,vorkuta,67.5,64.0,261.29,89,100,2.04,RU,1701480460
159,haenam,34.5711,126.5989,279.1,62,93,0.43,KR,1701481021
160,wau,7.7029,27.9953,299.6,51,69,1.11,SS,1701481022
161,mount isa,-20.7333,139.5,302.02,61,100,6.17,AU,1701481022
162,dryden,49.7833,-92.7503,269.31,74,100,3.09,CA,1701480467
163,kyaukse,21.6,96.1333,296.37,81,100,1.29,MM,1701481023
164,keflavik,64.0049,-22.5624,272.39,74,0,2.06,IS,1701481023
165,ivnya,51.0629,36.1343,271.77,96,100,2.61,RU,1701481023
166,smidovich,48.6,133.8167,258.53,90,95,3.59,RU,1701481023
167,chiredzi,-21.05,31.6667,288.65,82,0,2.02,ZW,1701481024
168,la'ie,21.6477,-157.9253,297.81,79,100,0.95,US,1701481024
169,kalifornsky,60.4183,-151.29,271.7,90,0,0.0,US,1701481024
170,ciudad lazaro cardenas,17.9583,-102.2,299.74,72,100,2.55,MX,1701480437
171,butembo,0.15,29.2833,286.38,90,10,1.36,CD,1701481025
172,colchani,-20.3,-66.9333,286.44,23,100,2.34,BO,1701481025
173,sicuani,-14.2694,-71.2261,283.48,81,92,2.23,PE,1701481025
174,sitka,57.0531,-135.33,280.09,57,75,7.72,US,1701480466
175,holualoa,19.6228,-155.9522,299.69,82,75,5.66,US,1701481025
176,kimbe,-5.5502,150.1429,304.73,63,100,2.03,PG,1701480817
177,anadyr,64.75,177.4833,260.43,92,75,1.0,RU,1701481026
178,ninghai,29.2892,121.4247,282.84,41,10,0.59,CN,1701481026
179,akureyri,65.6835,-18.0878,269.11,100,100,1.03,IS,1701481026
180,itaqui,-29.1253,-56.5531,300.37,82,14,2.69,BR,1701481027
181,bushehr,28.9684,50.8385,290.2,63,0,3.09,IR,1701481027
182,fortuna,40.5982,-124.1573,285.01,97,100,3.6,US,1701480449
183,okhotsk,59.3833,143.3,246.5,86,6,4.11,RU,1701480475
184,kodiak,57.79,-152.4072,275.88,87,100,3.09,US,1701481028
185,olds,51.7834,-114.102,268.06,79,100,3.09,CA,1701481028
186,zaozersk,69.4005,32.4476,260.63,98,87,0.74,RU,1701481028
187,burang,30.25,81.1667,261.13,60,0,1.61,CN,1701480455
188,brokopondo,4.75,-55.1667,298.53,82,56,4.0,SR,1701481028
189,ta`u,-14.2336,-169.5144,300.84,82,100,7.32,AS,1701481029
190,st. john's,47.5649,-52.7093,278.13,93,100,8.75,CA,1701481029
191,thompson,55.7435,-97.8558,260.24,85,100,4.63,CA,1701481030
192,flying fish cove,-10.4217,105.6791,299.97,69,40,4.63,CX,1701481030
193,cherdyn',60.403,56.4787,266.36,95,100,2.28,RU,1701481030
194,gaspe,48.8334,-64.4819,273.1,100,0,1.03,CA,1701480832
195,north bay,46.3168,-79.4663,272.65,67,75,3.09,CA,1701480926
196,praia da vitoria,38.7333,-27.0667,290.29,72,20,9.09,PT,1701481031
197,santiago de cao,-7.9589,-79.2392,293.22,83,75,4.12,PE,1701481031
198,pandan,14.0453,124.1694,300.33,85,69,6.8,PH,1701481031
199,altinopolis,-21.0256,-47.3739,296.79,62,14,0.99,BR,1701481031
200,horta,38.5333,-28.6333,290.38,87,100,7.6,PT,1701480454
201,fort-shevchenko,44.5086,50.263,283.18,90,100,7.01,KZ,1701481032
202,fort mcmurray,56.7268,-111.381,263.92,85,0,3.6,CA,1701481032
203,mikhaylovskoye,51.8239,79.7172,271.7,82,100,5.3,RU,1701481033
204,santiago de surco,-12.15,-77.0167,295.89,77,0,4.63,PE,1701481033
205,kailua-kona,19.6406,-155.9956,301.61,82,75,5.66,US,1701480742
206,i-n-salah,27.1935,2.4607,291.07,13,100,2.64,DZ,1701481033
207,champoton,19.35,-90.7167,299.81,70,100,4.28,MX,1701480771
208,juneau,58.3019,-134.4197,275.15,92,100,0.0,US,1701480832
209,yaren,-0.5472,166.916,300.38,81,100,2.95,NR,1701481034
210,saint-philippe,-21.3585,55.7679,297.92,79,100,1.43,RE,1701481035
211,east london,-33.0153,27.9116,292.75,79,96,6.17,ZA,1701481035
212,naze,28.3667,129.4833,290.66,56,88,4.8,JP,1701480767
213,ratnagiri,16.9833,73.3,297.33,73,96,2.1,IN,1701481035
214,pimentel,-6.8367,-79.9342,294.31,83,20,6.69,PE,1701481035
215,bafra,41.5678,35.9069,291.88,66,18,3.77,TR,1701481036
216,guajara mirim,-10.7828,-65.3394,298.86,75,95,0.48,BR,1701481036
217,hithadhoo,-0.6,73.0833,300.59,76,97,4.94,MV,1701481037
218,punta arenas,-53.15,-70.9167,279.21,65,75,8.23,CL,1701481037
219,abalak,58.1286,68.5944,261.67,96,91,0.79,RU,1701481037
220,la ronge,55.1001,-105.2842,260.29,78,0,1.54,CA,1701480439
221,vorgashor,67.5833,63.95,261.87,86,100,1.93,RU,1701481038
222,papao,-17.75,-149.55,303.97,84,29,7.82,PF,1701481038
223,ksar chellala,35.2122,2.3189,284.05,84,85,5.94,DZ,1701481038
224,noumea,-22.2763,166.4572,308.14,73,10,5.52,NC,1701480310
225,minas de marcona,-15.2119,-75.1103,288.33,80,42,5.74,PE,1701480442
226,boca suno,-0.7167,-77.1333,296.92,86,100,1.04,EC,1701481038
227,kapuskasing,49.4169,-82.4331,266.2,79,100,2.57,CA,1701481039
228,kushiro,42.975,144.3747,272.68,51,20,0.51,JP,1701481039
229,george town,5.4112,100.3354,300.34,89,40,1.54,MY,1701481039
230,erdenet,49.0333,104.0833,260.26,76,21,1.61,MN,1701481039
231,tangalle,6.024,80.7911,298.24,91,100,2.55,LK,1701480770
232,chibougamau,49.9168,-74.3659,255.94,85,0,0.0,CA,1701481040
233,ulaangom,49.9811,92.0667,256.76,89,100,1.94,MN,1701481040
234,laguna,38.421,-121.4238,288.31,52,100,1.54,US,1701480449
235,bauchi,10.5,10.0,291.9,19,95,2.6,NG,1701481040
236,geraldton,-28.7667,114.6,297.38,64,0,7.72,AU,1701481041
237,sambava,-14.2667,50.1667,297.28,87,98,0.91,MG,1701481041
238,majie,25.0333,102.6361,285.14,100,75,6.0,CN,1701481041
239,sur,22.5667,59.5289,296.27,65,0,1.79,OM,1701480855
240,nar'yan-mar,67.6713,53.087,266.54,96,100,2.24,RU,1701481041
241,whangarei,-35.7317,174.3239,294.23,57,98,3.8,NZ,1701481041
242,pyu,18.4833,96.4333,298.13,76,72,2.85,MM,1701481042
243,shimoda,34.6667,138.95,285.35,59,15,4.07,JP,1701481042
244,changping,40.2186,116.2197,272.95,23,0,3.71,CN,1701481042
245,luderitz,-26.6481,15.1594,291.41,74,98,8.55,NA,1701481043
246,qobustan,40.0824,49.412,284.88,70,0,7.03,AZ,1701481043
247,vadso,70.0744,29.7487,266.24,93,100,1.54,NO,1701481043
248,uturoa,-16.7333,-151.4333,300.44,79,7,8.16,PF,1701481043
249,nema,57.5067,50.5011,262.57,95,100,2.01,RU,1701481044
250,rockport,28.0206,-97.0544,291.15,87,100,4.63,US,1701480959
251,cova figueira,14.8905,-24.2934,295.66,79,100,4.38,CV,1701481044
252,kerikeri,-35.2268,173.9474,292.94,60,69,3.41,NZ,1701481044
253,antofagasta,-23.65,-70.4,290.75,77,37,2.58,CL,1701481045
254,hotan,37.0997,79.9269,274.04,42,75,1.28,CN,1701481045
255,bulgan,48.8125,103.5347,261.5,78,23,1.3,MN,1701481045
256,salekhard,66.53,66.6019,248.31,100,100,0.4,RU,1701481045
257,tromso,69.6496,18.957,272.16,74,100,7.72,NO,1701481046
258,nova vicosa,-17.8919,-39.3719,298.47,85,73,5.74,BR,1701481046
259,san patricio,28.017,-97.5169,291.23,81,100,3.41,US,1701481046
260,maralal,1.0968,36.698,287.34,78,10,1.63,KE,1701481046
261,aksu,41.1231,80.2644,272.4,54,0,0.68,CN,1701481046
262,iskateley,67.6803,53.1512,266.49,96,100,2.24,RU,1701481047
263,solnechnyy,50.7214,136.6319,254.28,81,100,1.68,RU,1701481047
264,newman,37.3138,-121.0208,287.28,37,8,0.89,US,1701481047
265,portland,45.5234,-122.6762,283.3,86,100,4.02,US,1701481048
266,princeville,45.7668,-61.2985,280.32,94,0,3.6,CA,1701481048
267,betio village,1.358,172.9211,304.17,74,12,5.02,KI,1701481048
268,mawu,29.5923,107.3139,281.78,77,100,0.55,CN,1701481048
269,lihue,21.9789,-159.3672,299.73,84,0,3.6,US,1701481048
270,camana,-16.6228,-72.7111,293.14,82,97,3.34,PE,1701481049
271,polyarnyy,69.1989,33.4478,258.52,99,93,2.32,RU,1701480773
272,constantia,44.1833,28.65,283.54,85,15,4.83,RO,1701480810
273,aktau,43.65,51.2,277.47,83,95,5.4,KZ,1701480963
274,namsos,64.4662,11.4957,267.18,78,59,6.17,NO,1701481050
275,enewetak,11.3474,162.3373,300.79,78,54,8.81,MH,1701481050
276,vila velha,-20.3297,-40.2925,300.12,77,20,4.12,BR,1701480469
277,la jolla,32.8473,-117.2742,289.78,72,0,2.57,US,1701480998
278,al jawf,29.5,38.75,287.07,51,0,3.11,SA,1701481051
279,port alfred,-33.5906,26.891,291.03,89,88,0.45,ZA,1701481051
280,charters towers,-20.1,146.2667,307.6,37,36,2.73,AU,1701481051
281,qaqortoq,60.7167,-46.0333,267.62,82,100,1.9,GL,1701481051
282,galesong,-5.3166,119.3661,304.16,66,96,0.87,ID,1701481051
283,callao,-12.0667,-77.15,296.33,83,0,4.63,PE,1701481052
284,tete,-16.1564,33.5867,295.2,83,20,1.54,MZ,1701481052
285,atafu village,-8.5421,-172.5159,301.8,78,100,4.1,TK,1701481052
286,zuyevka,58.405,51.1335,257.64,100,100,1.36,RU,1701481052
287,cestos city,5.46,-9.5828,299.56,87,55,4.35,LR,1701481053
288,kaoma,-14.7833,24.8,291.49,94,100,1.91,ZM,1701481053
289,stefanesti,44.8667,24.9333,280.64,87,67,2.2,RO,1701481053
290,la passe,45.5549,-0.8967,276.28,85,40,3.92,FR,1701481053
291,sonoita,31.85,-112.8333,287.53,46,0,3.03,MX,1701481053
292,tongliao,43.6125,122.2653,265.43,75,47,5.75,CN,1701481054
293,harper,4.375,-7.7169,298.97,88,8,3.19,LR,1701481054
294,amga,60.8953,131.9608,248.19,92,100,2.74,RU,1701481054
295,soure,-0.7167,-48.5233,299.27,84,3,3.83,BR,1701481055
296,mzimba,-11.9,33.6,289.39,96,71,1.52,MW,1701481055
297,waingapu,-9.6567,120.2641,304.16,64,74,2.55,ID,1701481055
298,pingliang,35.5392,106.6861,276.65,37,0,0.39,CN,1701481055
299,karratha,-20.7377,116.8463,301.47,49,0,4.93,AU,1701480460
300,six-fours-les-plages,43.0938,5.84,280.88,82,15,4.47,FR,1701481056
301,luanda,-8.8368,13.2343,299.15,83,40,1.54,AO,1701481056
302,likiep,9.8251,169.3107,301.07,76,100,7.81,MH,1701481056
303,howrah,22.5892,88.3103,293.15,88,40,4.63,IN,1701480469
304,augusto correa,-1.0217,-46.635,297.83,90,31,1.4,BR,1701481057
305,saint-francois,46.4154,3.9054,275.84,94,100,5.14,FR,1701481057
306,kita,13.0349,-9.4895,297.94,25,97,1.38,ML,1701481057
307,noshiro,40.2039,140.0242,274.61,73,100,2.67,JP,1701481057
308,mandera,3.9366,41.867,300.09,51,70,3.57,KE,1701481058
309,inyonga,-6.7167,32.0667,290.51,97,95,0.5,TZ,1701481058
310,ampanihy,-24.7,44.75,290.67,88,10,5.99,MG,1701481058
311,sete lagoas,-19.4658,-44.2467,294.75,70,99,1.59,BR,1701481058
312,retreat,38.8245,-85.8533,285.36,91,100,1.79,US,1701481059
313,calama,-22.4667,-68.9333,290.42,17,0,6.69,CL,1701480847
314,mujiayingzi,42.1167,118.7833,268.96,37,0,5.62,CN,1701481059
315,ocean shores,46.9737,-124.1563,283.16,94,100,6.17,US,1701480798
316,oriximina,-1.7656,-55.8661,297.68,88,27,1.54,BR,1701481060
317,rasht,37.2808,49.5832,285.16,84,0,0.64,IR,1701481060
318,tura,25.5198,90.2201,293.74,66,67,0.91,IN,1701481060
319,alliance,40.9153,-81.1059,281.29,97,100,3.89,US,1701480943
320,kayenta,36.7278,-110.2546,274.4,68,53,8.02,US,1701481061
321,thinadhoo,0.5333,72.9333,300.55,79,95,5.38,MV,1701481061
322,itoman,26.1247,127.6694,293.37,68,75,6.17,JP,1701481061
323,san jose del guaviare,2.5729,-72.6459,296.43,89,31,0.68,CO,1701481061
324,cam ranh,11.9214,109.1591,300.13,94,75,8.23,VN,1701481061
325,ceerigaabo,10.6162,47.368,285.5,51,5,3.71,SO,1701481062
326,sena madureira,-9.0656,-68.6569,297.79,86,96,0.94,BR,1701481062
327,whitby,54.4877,-0.615,271.69,76,24,1.89,GB,1701481062
328,ambovombe,-25.1667,46.0833,293.08,76,58,7.51,MG,1701481062
329,severo-yeniseyskiy,60.3725,93.0408,264.58,98,100,1.34,RU,1701481062
330,ouadda,8.0777,22.4007,296.25,55,73,0.6,CF,1701481063
331,namibe,-15.1961,12.1522,295.09,80,94,2.53,AO,1701481063
332,urumqi,43.801,87.6005,268.68,93,100,1.0,CN,1701481063
333,aldan,58.6031,125.3894,251.1,93,100,4.94,RU,1701481063
334,valparaiso,-33.0393,-71.6273,287.95,72,0,3.09,CL,1701481063
335,iacu,-12.7672,-40.2117,295.78,81,3,2.2,BR,1701481064
336,boende,-0.2167,20.8667,294.34,99,100,1.3,CD,1701481064
337,shadrinsk,56.0852,63.6335,263.07,97,59,1.51,RU,1701481064
338,mohammedia,33.7066,-7.3944,289.0,100,96,3.09,MA,1701480967
339,nuriootpa,-34.4833,139.0,293.69,41,90,3.96,AU,1701481064
340,nizhniy lomov,53.5304,43.6766,270.84,94,95,6.46,RU,1701481065
341,balkanabat,39.5108,54.3671,283.09,83,0,0.2,TM,1701481065
342,bemidji,47.4736,-94.8803,268.65,73,0,0.0,US,1701481065
343,sovetskaya gavan',48.9723,140.2878,263.76,62,55,2.6,RU,1701481065
344,tarawa,1.419,172.984,304.2,74,75,4.12,KI,1701481066
345,bathsheba,13.2167,-59.5167,299.49,83,20,6.69,BB,1701481066
346,bako,5.7833,36.5667,292.61,56,77,1.58,ET,1701481066
347,anjala,60.6833,26.8333,266.03,91,93,2.9,FI,1701481066
348,likasi,-10.9814,26.7333,289.96,98,100,1.03,CD,1701481066
349,vernon,50.2581,-119.2691,273.57,75,98,0.51,CA,1701480989
350,kiffa,16.6166,-11.4045,298.79,12,69,4.54,MR,1701481067
351,broome,42.2506,-75.833,278.52,94,100,3.13,US,1701481067
352,kargasok,59.0556,80.8572,263.69,97,100,1.79,RU,1701481067
353,weihai,37.5017,122.1136,277.64,43,0,6.2,CN,1701481067
354,colares,38.7992,-9.4469,286.07,83,7,16.09,PT,1701481067
355,vratsa,43.21,23.5625,284.61,67,11,3.09,BG,1701481067
356,kearney,40.6995,-99.0815,270.1,76,20,1.54,US,1701480842
357,bazarnyye mataki,54.8833,49.9333,267.6,96,100,4.02,RU,1701481068
358,acarau,-2.8856,-40.12,299.45,82,58,4.3,BR,1701481068
359,quellon,-43.1167,-73.6167,278.54,87,6,3.27,CL,1701481068
360,edmundston,47.3737,-68.3251,274.78,87,40,1.54,CA,1701481068
361,sinop,41.7711,34.8709,283.63,76,7,5.46,TR,1701481068
362,rabo de peixe,37.8,-25.5833,289.88,99,20,5.66,PT,1701481068
363,antonio enes,-16.2325,39.9086,297.51,85,10,3.68,MZ,1701481069
364,kavieng,-2.5744,150.7967,301.28,73,98,0.95,PG,1701481069
365,kamaishi,39.2667,141.8833,279.06,53,42,1.97,JP,1701480795
366,agnita,45.9667,24.6167,280.99,82,96,2.11,RO,1701481069
367,victorica,-36.2151,-65.4359,295.24,25,27,4.82,AR,1701481069
368,warmbad,-28.45,18.7333,294.1,30,57,2.78,NA,1701481069
369,forster,-32.1667,152.5167,297.2,83,86,4.26,AU,1701481070
370,wynyard,-41.0,145.7167,290.08,72,100,2.76,AU,1701481070
371,lionel town,17.8101,-77.2406,302.09,79,50,4.13,JM,1701481070
372,puerto baquerizo moreno,-0.9,-89.6,297.41,81,100,6.27,EC,1701481070
373,mangrol,21.1167,70.1167,294.62,59,0,6.79,IN,1701481070
374,roosevelt,33.9668,-103.4505,281.08,44,6,4.96,US,1701481070
375,cabo san lucas,22.8909,-109.9124,297.46,61,20,5.14,MX,1701480919
376,shahpur,16.7,76.8333,294.49,67,12,2.82,IN,1701481071
377,tynda,55.1667,124.7167,251.67,92,87,0.5,RU,1701481071
378,byron bay,-28.65,153.6167,302.67,50,14,2.55,AU,1701480864
379,dawson creek,55.7666,-120.2362,265.95,79,0,1.03,CA,1701481071
380,bhawanigarh,30.2667,76.035,288.79,65,1,0.61,IN,1701481071
381,jayapura,-2.5333,140.7,303.81,65,73,2.6,ID,1701481072
382,poronaysk,49.2167,143.1167,264.09,72,18,0.43,RU,1701481072
383,port augusta,-32.5,137.7667,295.56,41,0,6.36,AU,1701480821
384,bowen,-20.0167,148.2333,301.85,69,100,4.98,AU,1701481072
385,rongelap,11.1635,166.8941,300.83,76,100,9.25,MH,1701481073
386,ujae,8.9322,165.7642,301.12,73,77,8.8,MH,1701481073
387,ornskoldsvik,63.2909,18.7153,264.68,86,100,4.12,SE,1701481073
388,levuka,50.1834,-105.4011,266.05,93,100,3.6,CA,1701481073
389,yuzhno-kurilsk,44.0306,145.8556,274.47,64,98,2.16,RU,1701481073
390,makrana,27.05,74.7167,289.28,67,0,2.6,IN,1701481074
391,goondiwindi,-28.55,150.3167,301.71,38,9,6.5,AU,1701481074
392,castlebar,53.85,-9.3,275.14,92,100,1.54,IE,1701481074
393,kingori,-3.2833,36.9833,291.42,81,68,1.75,TZ,1701481074
394,kisangani,0.5167,25.2,294.81,88,100,0.73,CD,1701481074
395,poso,-1.3959,120.7524,303.95,63,87,1.54,ID,1701481074
396,lebu,-37.6167,-73.65,284.1,86,100,5.09,CL,1701481074
397,kangaba,11.9333,-8.4167,297.98,29,95,0.88,ML,1701481075
398,mount gambier,-37.8333,140.7667,291.17,56,94,4.94,AU,1701481075
399,menaka,15.9182,2.4022,298.89,17,7,3.98,ML,1701481075
400,neiafu,-18.65,-173.9833,303.53,70,20,4.63,TO,1701481075
401,port saint john's,-31.6229,29.5448,293.18,79,39,4.46,ZA,1701481075
402,izucar de matamoros,18.6,-98.4667,293.65,61,96,1.75,MX,1701481075
403,gadzhiyevo,69.2551,33.3362,258.54,99,90,2.22,RU,1701481075
404,zaltan,32.947,11.8665,292.39,23,100,5.02,LY,1701481076
405,shantobe,52.4581,68.1839,271.36,94,99,6.19,KZ,1701481076
406,yokadouma,3.5167,15.05,293.98,97,89,0.06,CM,1701481076
407,n'zeto,-7.2312,12.8666,298.89,79,100,2.19,AO,1701481076
408,ziro,27.6333,93.8333,276.56,49,48,1.09,IN,1701481076
409,pont rouge,48.8833,-72.0825,267.31,92,72,1.16,CA,1701481076
410,sabirabad,40.0095,48.4752,282.49,66,1,3.41,AZ,1701481076
411,buka,40.8108,69.1986,282.04,61,100,0.44,UZ,1701481077
412,altagracia de orituco,9.8601,-66.3814,294.39,91,24,2.29,VE,1701481077
413,mitrofanovka,49.9708,39.6939,274.0,92,100,3.06,RU,1701481077
414,pirallahi,40.4723,50.333,286.23,85,3,11.16,AZ,1701481077
415,reggane,26.7158,0.1714,290.93,13,100,2.75,DZ,1701481077
416,touros,-5.1989,-35.4608,299.28,79,26,5.49,BR,1701480998
417,khandyga,62.6667,135.6,238.22,100,100,0.89,RU,1701481077
418,concepcion,-36.827,-73.0498,287.04,88,100,2.06,CL,1701481078
419,port douglas,-16.4833,145.4667,302.36,73,46,3.64,AU,1701481078
420,port lincoln,-34.7333,135.8667,291.79,53,7,4.55,AU,1701481078
421,kargil,34.5667,76.1,266.08,72,27,0.43,IN,1701481078
422,el granada,37.5027,-122.4694,287.23,79,100,4.63,US,1701481078
423,sokol,59.4617,40.1206,259.53,98,97,1.35,RU,1701481078
424,manta,-0.95,-80.7333,298.03,78,75,5.66,EC,1701481078
425,marondera,-18.1853,31.5519,284.2,80,1,1.51,ZW,1701481079
426,alaghsas,17.0187,8.0168,292.49,13,3,3.86,NE,1701481079
427,buurhakaba,2.8026,44.0781,298.09,77,100,3.48,SO,1701481079
428,at taj,24.2049,23.2857,285.93,42,0,4.11,LY,1701481079
429,moia,41.8101,2.0958,281.35,91,71,1.7,ES,1701481079
430,caleta de carquin,-11.0925,-77.6267,293.32,85,78,4.37,PE,1701481079
431,ghanzi,-21.5667,21.7833,295.86,35,5,4.56,BW,1701481079
432,'ain benian,36.8028,2.9219,289.18,64,87,9.17,DZ,1701481080
433,aasiaat,68.7098,-52.8699,262.21,85,51,3.79,GL,1701481080
434,champerico,14.3,-91.9167,300.49,75,0,2.83,GT,1701481080
435,atasu,48.6814,71.6433,273.22,61,100,2.42,KZ,1701481080
436,zouerate,22.7187,-12.4521,292.49,64,85,3.13,MR,1701481080
437,srandakan,-7.9386,110.2506,300.86,75,98,2.18,ID,1701481080
438,chifeng,42.2683,118.9636,269.34,37,0,4.49,CN,1701481080
439,tarko-sale,64.9225,77.785,252.92,86,89,4.8,RU,1701481081
440,al khafji,28.4391,48.4913,291.86,47,0,5.94,SA,1701481081
441,rodinghausen,52.25,8.4833,270.64,98,93,0.67,DE,1701481081
442,fortaleza,-3.7227,-38.5247,301.52,84,20,4.12,BR,1701481081
443,saint-pierre,-21.3393,55.4781,297.97,65,99,3.09,RE,1701481081
444,kobelyaky,49.1489,34.1965,273.69,97,100,2.3,UA,1701481082
445,san rafael del sur,11.8485,-86.4384,294.69,76,11,4.73,NI,1701481082
446,perechyn,48.7333,22.4667,275.46,100,100,1.22,UA,1701481082
447,neubrandenburg,53.5667,13.2667,268.47,99,84,1.63,DE,1701481083
448,berezovo,63.9381,65.0419,250.91,99,99,2.66,RU,1701481083
449,umba,66.6871,34.3429,263.09,93,100,3.86,RU,1701481083
450,broken hill,-31.95,141.4333,297.79,34,0,5.47,AU,1701481084
451,hashtpar,37.8008,48.9037,287.81,57,0,1.83,IR,1701481084
452,altay,47.8667,88.1167,268.91,72,99,2.1,CN,1701481084
453,heyuan,23.7333,114.6833,289.12,55,98,2.46,CN,1701481085
454,krasnoyarsk,56.0097,92.7917,271.37,96,100,1.89,RU,1701481085
455,petrolina,-9.3986,-40.5008,299.18,44,0,2.06,BR,1701481085
456,mozhaysk,55.5019,36.0272,257.34,100,99,1.59,RU,1701481085
457,gornopravdinsk,60.05,69.9,254.46,99,88,1.06,RU,1701481086
458,margate,51.3813,1.3862,276.31,85,100,1.34,GB,1701481086
459,mizdah,31.4451,12.9801,287.7,25,100,2.75,LY,1701481086
460,makary,12.5717,14.4666,297.22,49,39,4.01,CM,1701481086
461,regina,50.4501,-104.6178,268.73,77,75,6.17,CA,1701481087
462,makassar,-5.14,119.4221,304.18,74,20,1.54,ID,1701481087
463,manismata,-2.4667,111.0333,302.16,68,100,0.89,ID,1701481087
464,ibirama,-27.0569,-49.5178,296.85,92,96,1.18,BR,1701480991
465,magadan,59.5667,150.8,264.61,84,100,4.7,RU,1701481088
466,pacocha,-17.5833,-71.3333,292.32,83,62,1.61,PE,1701481088
467,as sulayyil,20.4607,45.5779,289.29,39,0,3.45,SA,1701481088
468,lib,8.3122,167.3766,301.16,74,79,9.01,MH,1701481089
469,ola,59.5833,151.2833,264.98,87,100,4.29,RU,1701481089
470,mount pearl,47.5166,-52.7813,277.67,94,100,8.75,CA,1701480958
471,kavaratti,10.5669,72.642,301.66,71,66,5.87,IN,1701481089
472,garoua,9.3,13.4,298.24,25,67,0.9,CM,1701481090
473,bismarck,46.8083,-100.7837,271.84,72,100,3.6,US,1701481090
474,huarmey,-10.0681,-78.1522,293.87,85,92,3.9,PE,1701481090
475,arno,60.1167,18.6333,271.36,94,100,6.86,SE,1701481090
476,inari,68.906,27.0288,260.26,100,100,1.05,FI,1701481091
477,kincardine,56.0667,-3.7167,272.7,91,89,0.06,GB,1701481091
478,ronne,55.1009,14.7066,273.1,86,75,3.09,DK,1701481091
479,cidreira,-30.1811,-50.2056,295.13,93,36,9.55,BR,1701481092
480,urjala,61.0833,23.5333,265.2,98,72,1.8,FI,1701481092
481,tsiombe,-25.3,45.4833,293.64,72,83,5.94,MG,1701481092
482,richards bay,-28.783,32.0377,292.92,66,0,7.55,ZA,1701481092
483,odienne,9.51,-7.5692,299.91,53,97,1.44,CI,1701481093
484,talant,47.3369,5.0089,274.49,87,100,4.63,FR,1701481093
485,ariquemes,-9.9133,-63.0408,296.23,96,100,0.4,BR,1701481093
486,purushottampur,19.5333,84.8833,294.97,70,70,1.51,IN,1701481093
487,lucapa,-8.4192,20.7447,290.52,98,97,0.17,AO,1701481094
488,huanren,41.2647,125.3667,268.25,75,100,2.18,CN,1701481094
489,kondopoga,62.2057,34.2614,265.78,99,100,1.86,RU,1701481094
490,nizhyn,51.048,31.8869,270.1,97,100,0.48,UA,1701481094
491,bardai,11.65,7.2333,293.17,20,67,3.81,NG,1701481095
492,opuwo,-18.0607,13.84,294.69,71,100,2.71,NA,1701481095
493,castillos,-34.1667,-53.8333,292.82,98,100,4.51,UY,1701481095
494,griffith,41.5284,-87.4237,279.32,94,100,2.06,US,1701480834
495,san luis de la loma,17.2706,-100.8939,299.55,77,100,1.69,MX,1701481095
496,mineiros,-17.5694,-52.5511,297.07,60,97,0.99,BR,1701480994
497,navia,43.5354,-6.7194,281.91,92,87,1.61,ES,1701481096
498,ankang,32.68,109.0172,282.3,54,32,0.46,CN,1701481097
499,mahilyow,53.9139,30.3364,261.15,98,100,2.63,BY,1701481097
500,adjumani,3.3779,31.7909,294.73,70,60,1.13,UG,1701481097
501,kattivakkam,13.2167,80.3167,299.2,89,99,7.87,IN,1701481097
502,gombi,10.1614,12.7399,294.65,22,14,3.03,NG,1701481097
503,angaur state,6.906,134.13,302.16,76,75,7.91,PW,1701481098
504,tamiahua,21.2667,-97.45,296.75,88,100,2.59,MX,1701481098
505,walvis bay,-22.9575,14.5053,290.98,88,94,1.54,NA,1701481098
506,myeik,12.4333,98.6,300.39,73,38,2.33,MM,1701481098
507,flin flon,54.7682,-101.865,258.19,100,75,1.5,CA,1701481098
508,middle island,40.8843,-72.9373,282.26,93,100,3.6,US,1701481099
509,kununurra,-15.7667,128.7333,309.14,46,60,2.57,AU,1701481099
510,sines,37.9562,-8.8698,286.09,74,58,0.45,PT,1701481099
511,lupane,-18.9315,27.807,289.52,61,0,2.46,ZW,1701481099
512,hughson,37.5969,-120.866,287.42,57,0,2.57,US,1701481100
513,piacabucu,-10.4056,-36.4344,298.64,82,28,4.45,BR,1701481100
514,dolores,-36.3132,-57.6792,290.19,97,81,1.45,AR,1701481100
515,oranjemund,-28.55,16.4333,289.73,86,85,4.87,NA,1701481100
516,pangody,65.85,74.4859,252.44,95,41,3.78,RU,1701480865
517,langepas,61.2544,75.2124,250.89,100,71,1.75,RU,1701481101
518,quesnel,52.9999,-122.5029,274.43,64,100,4.12,CA,1701481101
519,tual,-5.6667,132.75,301.87,72,32,1.02,ID,1701481101
520,gebeit,21.0667,36.3167,292.8,89,0,2.19,SD,1701481101
521,shingu,33.7333,135.9833,284.14,48,6,5.03,JP,1701480987
522,yanchep,-31.55,115.6833,300.9,57,38,4.64,AU,1701481102
523,arendal,58.4615,8.7725,261.04,67,100,2.13,NO,1701481102
524,remire-montjoly,4.9167,-52.2667,297.17,94,0,0.0,GF,1701481102
525,tezu,27.9167,96.1667,295.33,41,98,0.21,IN,1701481102
526,acapulco de juarez,16.8634,-99.8901,301.05,78,100,1.03,MX,1701480985
527,cannonvale,-20.2833,148.7,302.81,67,99,5.24,AU,1701481103
528,mossel bay,-34.1831,22.146,292.11,78,18,3.1,ZA,1701481103
529,east ballina,-28.8667,153.5833,302.63,48,7,3.29,AU,1701481003
530,sai buri,6.7013,101.6168,298.69,89,100,3.7,TH,1701481104
531,palu,-0.8917,119.8707,304.35,68,86,0.71,ID,1701481104
532,kidal,18.4411,1.4078,297.71,18,44,2.98,ML,1701481104
533,wotho,10.1657,166.0102,301.42,72,97,8.72,MH,1701481104
534,leava,-14.3,-178.1667,301.64,80,94,7.43,WF,1701481104
535,pervomayskiy,53.2485,40.2871,266.42,94,96,5.68,RU,1701481105
536,plaza huincul,-38.926,-69.2086,289.9,10,1,4.92,AR,1701481105
537,conception bay south,47.4999,-52.9981,278.0,94,100,9.61,CA,1701481105
538,taro,-8.3862,115.28,297.15,85,100,1.35,ID,1701481105
539,leesville,31.1435,-93.261,294.28,100,100,3.09,US,1701480877
540,yakutsk,62.0339,129.7331,244.13,69,100,1.0,RU,1701481106
541,chato,-2.6378,31.7669,291.06,83,42,1.43,TZ,1701481106
542,chateaubourg,48.1112,-1.4002,274.61,86,92,2.28,FR,1701481106
543,grand-lahou,5.1367,-5.0242,299.03,86,88,3.26,CI,1701481106
544,rawson,-43.3002,-65.1023,286.76,53,82,3.68,AR,1701481107
545,ghadamis,30.1337,9.5007,291.53,17,100,4.77,LY,1701481107
546,roscommon,53.6333,-8.1833,273.77,96,100,2.0,IE,1701481107
547,wagar,16.1525,36.2032,296.04,67,22,3.64,SD,1701481107
548,plettenberg bay,-34.0527,23.3716,289.35,81,38,2.71,ZA,1701481108
549,pierre,44.3683,-100.351,273.07,64,100,5.36,US,1701481108
550,kalmunai,7.4167,81.8167,298.0,88,100,6.2,LK,1701481108
