City_ID,City,Lat,Lng,Max Temp,Humidity,Cloudiness,Wind Speed,Country,Date
0,baotou,40.6522,109.8222,-0.2599999999999909,28,0,1.19,CN,1701493169
1,petropavlovsk-kamchatsky,53.0452,158.6483,-3.669999999999959,81,20,8.0,RU,1701493026
2,thinadhoo,0.5333,72.9333,27.900000000000034,76,81,5.64,MV,1701493169
3,betio village,1.358,172.9211,31.02000000000004,74,15,4.11,KI,1701493169
4,iqaluit,63.7506,-68.5145,-5.149999999999977,62,75,8.75,CA,1701493158
5,port-aux-francais,-49.35,70.2167,4.78000000000003,90,100,11.67,TF,1701493170
6,labrador city,52.9463,-66.9114,-16.049999999999955,85,100,2.06,CA,1701493170
7,grand falls-windsor,48.9332,-55.6649,1.9500000000000455,91,98,4.69,CA,1701493170
8,bakanas,44.8081,76.2772,5.2900000000000205,67,98,2.57,KZ,1701493171
9,svetlyy,54.675,20.1347,0.20000000000004547,95,98,1.13,RU,1701493171
10,huarmey,-10.0681,-78.1522,20.310000000000002,87,96,4.6,PE,1701493171
11,grytviken,-54.2811,-36.5092,2.7800000000000296,62,36,4.4,GS,1701493096
12,aasiaat,68.7098,-52.8699,-11.279999999999973,86,52,3.54,GL,1701493171
13,al ghayzah,16.2079,52.176,25.210000000000036,34,0,1.14,YE,1701493172
14,puerto ayora,-0.7393,-90.3518,24.75,93,99,2.24,EC,1701493004
15,ushuaia,-54.8,-68.3,2.8100000000000023,87,0,1.03,AR,1701493167
16,tsengel,49.4783,100.8894,-7.8799999999999955,56,100,1.33,MN,1701493172
17,waitangi,-43.9535,-176.5597,13.79000000000002,72,3,0.45,NZ,1701493112
18,nizhnesortymskiy,62.4397,71.7603,-21.839999999999975,100,82,3.13,RU,1701493173
19,yellowknife,62.456,-114.3525,-18.70999999999998,78,100,3.09,CA,1701493173
20,adamstown,-25.066,-130.1015,22.090000000000032,82,7,5.95,PN,1701493173
21,tazovsky,67.4667,78.7,-15.359999999999957,93,100,4.91,RU,1701493173
22,invercargill,-46.4,168.35,11.470000000000027,91,100,3.26,NZ,1701493174
23,vila velha,-20.3297,-40.2925,23.970000000000027,91,97,3.6,BR,1701493078
24,ponta delgada,37.7333,-25.6667,18.400000000000034,63,40,6.17,PT,1701493173
25,waingapu,-9.6567,120.2641,30.230000000000018,69,89,3.54,ID,1701493174
26,alamogordo,32.8995,-105.9603,9.640000000000043,59,100,4.63,US,1701493174
27,enewetak,11.3474,162.3373,27.730000000000018,79,40,8.07,MH,1701492908
28,saint-philippe,-21.3585,55.7679,26.77000000000004,80,100,2.2,RE,1701493174
29,naracoorte,-36.9579,140.7383,20.689999999999998,44,95,3.89,AU,1701493175
30,bethel,41.3712,-73.414,7.890000000000043,88,100,0.0,US,1701493175
31,bredasdorp,-34.5322,20.0403,17.680000000000007,69,22,2.17,ZA,1701493175
32,arraial do cabo,-22.9661,-42.0278,23.54000000000002,92,29,0.38,BR,1701493157
33,kourou,5.1552,-52.6478,23.03000000000003,87,89,2.36,GF,1701493176
34,saint-pierre,-21.3393,55.4781,26.82000000000005,61,75,1.54,RE,1701493176
35,edinburgh of the seven seas,-37.0676,-12.3116,13.350000000000023,77,70,6.88,SH,1701493176
36,kill devil hills,36.0307,-75.676,20.0,83,40,6.17,US,1701493177
37,port mathurin,-19.6833,63.4167,25.78000000000003,80,19,6.41,MU,1701493177
38,fale old settlement,-9.3852,-171.2468,28.840000000000032,71,69,5.47,TK,1701493177
39,mogocha,53.7333,119.7667,-13.349999999999966,68,46,1.61,RU,1701493178
40,caleta de carquin,-11.0925,-77.6267,19.689999999999998,87,89,4.55,PE,1701493178
41,katabu,-4.9333,122.5167,31.450000000000045,63,56,1.57,ID,1701493178
42,west island,-12.1568,96.8225,27.99000000000001,65,40,5.66,CC,1701493178
43,papatowai,-46.5619,169.4708,15.700000000000045,70,100,2.27,NZ,1701493179
44,georgetown,5.4112,100.3354,29.960000000000036,83,20,3.6,MY,1701493179
45,san patricio,28.017,-97.5169,17.170000000000016,81,89,3.53,US,1701493179
46,aykhal,66.0,111.5,-30.059999999999974,100,100,2.64,RU,1701493180
47,puerto natales,-51.7236,-72.4875,2.2600000000000477,98,92,3.28,CL,1701493180
48,revda,56.801,59.9303,-7.859999999999957,96,98,1.17,RU,1701493180
49,hawaiian paradise park,19.5933,-154.9731,23.730000000000018,93,100,2.06,US,1701493133
50,kanevskaya,46.0849,38.9596,13.910000000000025,70,91,8.59,RU,1701493180
51,port elizabeth,-33.918,25.5701,19.5,87,20,3.6,ZA,1701493103
52,coahuayana de hidalgo,18.7,-103.6583,25.189999999999998,73,100,1.34,MX,1701493181
53,el calafate,-50.3408,-72.2768,3.5300000000000296,77,27,5.08,AR,1701493181
54,taltal,-25.4,-70.4833,16.950000000000045,81,0,0.53,CL,1701493181
55,murzuq,25.9155,13.9184,13.050000000000011,29,32,3.78,LY,1701493181
56,hithadhoo,-0.6,73.0833,28.04000000000002,74,78,5.02,MV,1701493181
57,constantia,44.1833,28.65,8.379999999999995,87,14,5.16,RO,1701493181
58,punta arenas,-53.15,-70.9167,4.060000000000002,81,75,7.2,CL,1701493164
59,whitehorse,60.7161,-135.0538,-11.569999999999993,84,100,0.0,CA,1701493182
60,anadyr,64.75,177.4833,-13.71999999999997,85,100,2.0,RU,1701493182
61,syktyvkar,61.6764,50.8099,-8.149999999999977,100,40,1.0,RU,1701493182
62,ribeira grande,38.5167,-28.7,18.210000000000036,87,100,10.28,PT,1701493105
63,college,64.8569,-147.8028,-19.819999999999965,85,0,0.0,US,1701493182
64,kapa'a,22.0752,-159.319,22.83000000000004,86,88,2.4,US,1701493182
65,machico,32.7,-16.7667,17.620000000000005,73,40,3.09,PT,1701493182
66,isafjordur,66.0755,-23.124,-2.8700000000000045,82,94,0.88,IS,1701493183
67,codrington,-38.2667,141.9667,16.670000000000016,64,15,5.86,AU,1701493183
68,sitka,57.0531,-135.33,3.150000000000034,91,85,2.8,US,1701493183
69,richards bay,-28.783,32.0377,22.05000000000001,64,0,7.08,ZA,1701493000
70,akrehamn,59.2667,5.1833,-0.3299999999999841,86,100,4.63,NO,1701493183
71,capao da canoa,-29.7456,-50.0097,21.840000000000032,96,84,5.19,BR,1701493183
72,kerman,30.2832,57.0788,3.920000000000016,45,0,2.06,IR,1701493183
73,albany,42.6001,-73.9662,6.520000000000039,89,100,0.89,US,1701493066
74,stanley,54.868,-1.6985,-7.989999999999952,100,0,1.03,GB,1701493019
75,colonia,50.9333,6.95,-0.0999999999999659,74,100,1.54,DE,1701493184
76,knyaze-volkonskoye,48.4642,135.4567,-9.810000000000002,81,83,3.13,RU,1701493184
77,bilibino,68.0546,166.4372,-26.19999999999999,97,100,1.4,RU,1701493117
78,kievka,50.2619,71.5514,0.6100000000000136,66,96,6.2,KZ,1701493184
79,peniche,39.3558,-9.3811,10.060000000000002,90,44,4.79,PT,1701493184
80,lazaro cardenas,17.9583,-102.2,24.930000000000007,78,100,1.72,MX,1701493185
81,majene,-3.5403,118.9707,30.470000000000027,66,83,2.24,ID,1701493185
82,ust-nera,64.5667,143.2,-28.659999999999968,100,100,1.1,RU,1701493151
83,rongelap,11.1635,166.8941,27.470000000000027,78,100,9.54,MH,1701493185
84,tual,-5.6667,132.75,29.05000000000001,71,46,1.79,ID,1701493185
85,bonthe,7.5264,-12.505,26.52000000000004,84,100,1.15,SL,1701493185
86,yelizovo,53.1873,158.3805,-2.919999999999959,46,20,8.0,RU,1701493185
87,alice springs,-23.7,133.8833,32.75,27,2,2.57,AU,1701493186
88,puerto rico,-26.796,-55.024,24.010000000000048,92,31,1.26,AR,1701493186
89,namibe,-15.1961,12.1522,22.29000000000002,78,97,2.42,AO,1701493186
90,lihue,21.9789,-159.3672,22.420000000000016,88,82,2.05,US,1701493184
91,hechuan,29.9947,106.2572,12.270000000000039,80,100,0.05,CN,1701493186
92,gizo,-8.103,156.8419,28.80000000000001,77,99,3.35,SB,1701493186
93,blackmans bay,-43.0167,147.3167,18.180000000000007,70,100,0.89,AU,1701493186
94,flying fish cove,-10.4217,105.6791,28.82000000000005,65,75,5.66,CX,1701493187
95,columbus,39.9612,-82.9988,11.5,97,100,4.12,US,1701493016
96,amga,60.8953,131.9608,-24.529999999999973,94,100,2.16,RU,1701493187
97,klyuchi,52.2667,79.1667,0.20000000000004547,79,100,6.32,RU,1701493187
98,byron bay,-28.65,153.6167,32.06,44,18,3.22,AU,1701493187
99,ivankiv,50.9386,29.8943,-2.829999999999984,96,100,0.96,UA,1701493187
100,yeniseysk,58.4497,92.1703,-6.699999999999989,97,99,0.89,RU,1701493188
101,st. john's,47.5649,-52.7093,5.660000000000025,94,100,7.2,CA,1701492949
102,gannat,46.1002,3.1989,0.8799999999999955,87,99,4.82,FR,1701493188
103,grand ledge,42.7534,-84.7464,3.490000000000009,100,100,3.09,US,1701493188
104,tiksi,71.6872,128.8694,-27.42999999999998,91,100,1.98,RU,1701493188
105,atbara,17.7022,33.9864,22.160000000000025,69,1,5.26,SD,1701493188
106,dongcun,36.7767,121.1597,7.330000000000041,22,0,4.74,CN,1701493188
107,hami,42.8,93.45,3.830000000000041,23,81,0.93,CN,1701493189
108,hermanus,-34.4187,19.2345,17.27000000000004,80,53,1.26,ZA,1701493110
109,sorong,-0.8833,131.25,27.850000000000023,78,41,1.53,ID,1701493189
110,mount pearl,47.5166,-52.7813,5.189999999999998,95,100,7.2,CA,1701493015
111,hadibu,12.65,54.0333,25.78000000000003,74,63,8.5,YE,1701493189
112,atafu village,-8.5421,-172.5159,28.260000000000048,77,100,5.52,TK,1701493189
113,contamana,-7.3333,-75.0167,20.980000000000018,100,88,0.59,PE,1701493189
114,kaa-khem,51.6833,94.7333,-17.0,86,100,1.21,RU,1701493189
115,badger,64.8,-147.5333,-19.859999999999985,85,0,0.0,US,1701493190
116,masterton,-40.9597,175.6575,18.710000000000036,66,100,1.18,NZ,1701493190
117,dunda,-8.1167,34.25,21.28000000000003,75,76,0.78,TZ,1701493190
118,port alfred,-33.5906,26.891,19.54000000000002,84,90,2.24,ZA,1701493135
119,ancud,-41.8697,-73.8203,7.07000000000005,72,26,4.65,CL,1701493190
120,charqueadas,-29.9547,-51.6253,25.08000000000004,93,69,0.58,BR,1701493190
121,tolanaro,-25.0319,46.9987,22.04000000000002,64,75,4.12,MG,1701493190
122,guerrero negro,27.9769,-114.0611,17.29000000000002,65,1,6.2,MX,1701493191
123,fort bragg,35.139,-79.006,18.850000000000023,92,100,3.09,US,1701493024
124,rio grande,-32.035,-52.0986,21.640000000000043,97,100,1.71,BR,1701493191
125,zaozersk,69.4005,32.4476,-12.449999999999989,98,89,1.19,RU,1701493191
126,porto novo,6.4965,2.6036,25.900000000000034,89,97,2.2,BJ,1701493191
127,qamdo,31.1667,97.2333,-0.42999999999995,36,43,1.64,CN,1701493191
128,duong dong,10.2167,103.9667,30.0,70,40,5.14,VN,1701493191
129,abra pampa,-22.7205,-65.697,12.840000000000032,66,100,5.46,AR,1701493191
130,margaret river,-33.95,115.0667,20.960000000000036,66,87,5.02,AU,1701493128
131,golfito,8.639,-83.166,23.680000000000007,94,39,1.58,CR,1701492908
132,soure,-0.7167,-48.5233,25.980000000000018,84,2,3.31,BR,1701493192
133,igarka,67.4667,86.5833,-21.48999999999998,94,100,4.1,RU,1701493192
134,kanazawa,36.5944,136.6256,9.050000000000011,74,93,3.36,JP,1701493192
135,longyearbyen,78.2186,15.6401,-7.089999999999975,68,0,7.2,SJ,1701492958
136,robore,-18.3333,-59.75,24.650000000000034,69,2,2.12,BO,1701493192
137,mont-tremblant,46.1949,-74.6264,0.20000000000004547,93,100,0.0,CA,1701493133
138,vila franca do campo,37.7167,-25.4333,18.230000000000018,99,100,5.08,PT,1701493193
139,tomatlan,19.9333,-105.25,21.970000000000027,82,100,1.09,MX,1701493193
140,mossel bay,-34.1831,22.146,18.960000000000036,71,7,2.61,ZA,1701493193
141,gwadar,25.1216,62.3254,24.79000000000002,64,0,1.22,PK,1701493193
142,boise,43.6135,-116.2035,0.4500000000000455,94,20,0.0,US,1701493177
143,tura,25.5198,90.2201,25.610000000000014,48,82,1.25,IN,1701493193
144,eraan,9.0629,117.7016,30.230000000000018,68,100,2.04,PH,1701493193
145,port douglas,-16.4833,145.4667,28.100000000000023,76,62,3.94,AU,1701492988
146,tofol,5.3248,163.0078,27.879999999999995,83,100,4.12,FM,1701493194
147,vorgashor,67.5833,63.95,-10.70999999999998,87,100,2.41,RU,1701493194
148,edson,53.5835,-116.4356,-11.919999999999959,85,40,1.03,CA,1701493194
149,gadani,25.1185,66.7299,22.120000000000005,35,0,3.84,PK,1701493194
150,lospalos,-8.5186,127.0025,33.25,41,20,3.45,TL,1701493194
151,klaksvik,62.2266,-6.589,2.5100000000000477,63,100,8.08,FO,1701493194
152,lebu,-37.6167,-73.65,10.78000000000003,73,94,5.39,CL,1701493194
153,yongning,24.68,118.69,18.33000000000004,66,87,10.29,CN,1701493195
154,sisimiut,66.9395,-53.6735,-4.899999999999977,77,82,3.16,GL,1701493195
155,ilulissat,69.2167,-51.1,-8.599999999999966,66,26,4.09,GL,1701493092
156,kerikeri,-35.2268,173.9474,21.060000000000002,74,88,1.34,NZ,1701493195
157,lubang,13.8584,120.124,28.560000000000002,78,53,10.05,PH,1701493195
158,la manga del mar menor,37.6413,-0.7165,13.450000000000045,54,0,4.12,ES,1701493195
159,luderitz,-26.6481,15.1594,17.99000000000001,74,88,8.08,NA,1701493196
160,keflavik,64.0049,-22.5624,-0.7599999999999909,74,0,3.09,IS,1701493196
161,utrik,11.2278,169.8474,27.360000000000014,78,100,9.3,MH,1701493196
162,susuman,62.7833,148.1667,-26.829999999999984,99,100,1.65,RU,1701493196
163,sinabang,2.4803,96.3801,27.470000000000027,79,100,2.79,ID,1701492896
164,young,-32.6833,-57.6333,20.460000000000036,98,100,0.37,UY,1701493196
165,haiku-pauwela,20.9219,-156.3051,25.02000000000004,88,20,3.09,US,1701493196
166,holualoa,19.6228,-155.9522,22.150000000000034,98,49,0.45,US,1701493197
167,carutapera,-1.195,-46.02,25.230000000000018,84,42,2.03,BR,1701493197
168,chokwe,-24.5333,32.9833,22.04000000000002,58,0,1.66,MZ,1701493197
169,conduaga,8.862,117.4893,29.600000000000023,71,100,1.21,PH,1701493197
170,ambasa,23.9172,91.8472,27.340000000000032,53,61,1.03,IN,1701493197
171,hirara,24.8,125.2833,20.150000000000034,83,75,7.2,JP,1701493197
172,paradip garh,20.3167,86.6167,27.360000000000014,50,66,7.1,IN,1701493197
173,kingston,17.997,-76.7936,27.53000000000003,74,20,3.09,JM,1701493198
174,boca do acre,-8.7522,-67.3978,23.200000000000045,94,97,1.23,BR,1701493198
175,wailua homesteads,22.0669,-159.378,22.439999999999998,87,75,1.54,US,1701493113
176,carnarvon,-24.8667,113.6333,26.700000000000045,63,4,6.81,AU,1701493198
177,luau,-10.7073,22.2247,18.090000000000032,99,100,1.27,AO,1701493198
178,freetown,8.484,-13.2299,24.840000000000032,88,75,4.63,SL,1701493198
179,jeddah,21.5169,39.2192,25.920000000000016,78,0,0.0,SA,1701493130
180,pachino,36.7186,15.0907,19.470000000000027,74,100,7.03,IT,1701493199
181,matthew town,20.95,-73.6667,26.950000000000045,78,32,9.35,BS,1701493199
182,avarua,-21.2078,-159.775,25.03000000000003,83,100,6.17,CK,1701493138
183,buriti dos lopes,-3.175,-41.8669,25.439999999999998,89,96,2.59,BR,1701493199
184,cabo san lucas,22.8909,-109.9124,23.200000000000045,62,95,0.45,MX,1701493087
185,gubkinskiy,64.434,76.5026,-20.359999999999985,92,94,4.96,RU,1701493199
186,nemuro,43.3236,145.575,1.5600000000000023,50,8,3.79,JP,1701493046
187,shahrud,36.4182,54.9763,9.580000000000041,46,0,0.8,IR,1701493199
188,santiago de cao,-7.9589,-79.2392,20.07000000000005,83,75,4.12,PE,1701493200
189,kodiak,57.79,-152.4072,1.830000000000041,97,100,2.24,US,1701493200
190,khuzdar,27.7384,66.6434,15.410000000000025,34,0,0.68,PK,1701493200
191,yarmouth,41.7057,-70.2286,9.420000000000016,89,100,5.14,US,1701493202
192,new plymouth,-39.0667,174.0833,16.840000000000032,70,100,3.4,NZ,1701493205
193,barabai,-2.5833,115.3833,29.450000000000045,80,91,1.02,ID,1701493207
194,okha,53.5739,142.9478,-9.909999999999968,93,100,6.14,RU,1701493212
195,volendam,52.495,5.0708,-1.6599999999999682,81,35,0.89,NL,1701493215
196,berriane,32.8265,3.7669,15.450000000000045,19,100,6.91,DZ,1701492921
197,deniliquin,-35.5333,144.9667,24.400000000000034,44,51,8.56,AU,1701493217
198,nova sintra,14.8667,-24.7167,22.660000000000025,74,100,3.05,CV,1701493217
199,mareeba,-17.0,145.4333,26.930000000000007,91,62,2.09,AU,1701493217
200,east london,-33.0153,27.9116,19.52000000000004,82,0,6.17,ZA,1701493219
201,bassar,9.25,0.7833,23.460000000000036,42,51,1.31,TG,1701493220
202,lompoc,34.6391,-120.4579,12.230000000000018,79,0,3.6,US,1701493214
203,new smyrna beach,29.0258,-80.927,23.400000000000034,94,95,2.53,US,1701493041
204,coquimbo,-29.9533,-71.3436,13.850000000000023,88,0,1.03,CL,1701493222
205,itoman,26.1247,127.6694,20.220000000000027,60,75,6.69,JP,1701493222
206,vorkuta,67.5,64.0,-10.779999999999973,89,100,2.28,RU,1701493223
207,kulhudhuffushi,6.6221,73.07,28.140000000000043,73,99,0.78,MV,1701493223
208,bandarbeyla,9.4942,50.8122,26.760000000000048,63,14,11.2,SO,1701493224
209,usogorsk,63.4106,48.6872,-8.519999999999982,96,100,2.03,RU,1701493224
210,thompson,55.7435,-97.8558,-11.909999999999968,79,100,6.17,CA,1701492932
211,santa marta,11.2408,-74.199,28.83000000000004,69,20,9.39,CO,1701493225
212,takoradi,4.8845,-1.7554,26.07000000000005,87,40,3.37,GH,1701493226
213,kodinsk,58.6881,99.1844,-4.199999999999989,93,100,3.26,RU,1701493227
214,burnet,30.7582,-98.2284,11.350000000000023,76,0,3.26,US,1701493046
215,sola,-13.8833,167.55,26.950000000000045,84,100,8.31,VU,1701493228
216,port-gentil,-0.7193,8.7815,24.110000000000014,90,100,2.7,GA,1701493228
217,paka,4.6374,103.4368,26.960000000000036,94,40,1.54,MY,1701493228
218,arvore,41.3392,-8.7181,8.860000000000014,93,20,3.6,PT,1701493229
219,anloga,5.7947,0.8973,27.350000000000023,83,98,4.55,GH,1701493229
220,mejit,10.2753,170.8646,27.610000000000014,77,78,8.4,MH,1701493230
221,san pedro pochutla,15.7333,-96.4667,24.02000000000004,77,96,1.39,MX,1701493230
222,kyshtovka,56.555,76.6271,-7.029999999999973,95,98,3.58,RU,1701493230
223,mitsamiouli,-11.3847,43.2844,28.04000000000002,72,100,4.38,KM,1701493231
224,olonkinbyen,70.9221,-8.7187,-1.7999999999999545,70,81,5.78,SJ,1701493231
225,eyl,7.9803,49.8164,26.260000000000048,59,40,11.16,SO,1701493149
226,saint-joseph,-21.3667,55.6167,26.210000000000036,79,100,2.4,RE,1701493232
227,vilyuchinsk,52.9306,158.4028,-2.849999999999966,75,14,5.85,RU,1701493232
228,le pouliguen,47.2697,-2.4278,1.9700000000000273,78,38,4.77,FR,1701493232
229,daryapur,20.9333,77.3333,25.870000000000005,61,38,4.85,IN,1701493233
230,tinajo,29.0788,-13.7081,19.49000000000001,88,100,5.14,ES,1701493233
231,jamestown,42.097,-79.2353,6.770000000000039,100,100,2.57,US,1701493118
232,gidam,18.9833,81.4,29.010000000000048,31,68,3.53,IN,1701493234
233,saipan,15.1355,145.701,29.390000000000043,84,40,7.2,MP,1701493234
234,pisco,-13.7,-76.2167,20.03000000000003,77,0,4.63,PE,1701493235
235,bodaybo,57.8506,114.1933,-9.71999999999997,94,100,0.31,RU,1701493235
236,chui,-33.6971,-53.4616,20.150000000000034,99,100,5.46,UY,1701493218
237,quatre cocos,-20.2078,57.7625,27.83000000000004,70,97,2.62,MU,1701493235
238,niafunke,15.9322,-3.9906,24.04000000000002,19,82,4.16,ML,1701493236
239,la ronge,55.1001,-105.2842,-10.859999999999957,92,0,2.06,CA,1701493237
240,saint-francois,46.4154,3.9054,0.6899999999999977,87,100,6.69,FR,1701493238
241,tam ky,15.5667,108.4833,25.05000000000001,89,100,4.86,VN,1701493238
242,vegreville,53.5001,-112.0518,-9.829999999999984,85,100,2.57,CA,1701493239
243,san jose de guanipa,8.8872,-64.1651,23.680000000000007,80,14,5.11,VE,1701493241
244,hasaki,35.7333,140.8333,14.050000000000011,55,17,6.09,JP,1701493242
245,sao vicente,-23.9631,-46.3919,26.260000000000048,26,43,0.45,BR,1701493243
246,wanning,18.8003,110.3967,23.83000000000004,87,95,7.04,CN,1701493244
247,matsuyama,33.8392,132.7657,12.330000000000041,39,40,4.63,JP,1701493244
248,selfoss,63.9331,-20.9971,-6.089999999999975,63,1,4.02,IS,1701493245
249,illizi,26.4833,8.4667,15.890000000000043,13,45,2.75,DZ,1701493246
250,yorkton,51.2167,-102.4677,-9.089999999999975,92,75,3.6,CA,1701493246
251,tamanrasset,22.785,5.5228,8.950000000000045,25,0,1.03,DZ,1701493247
252,monticello,45.3055,-93.7941,-3.769999999999982,86,100,0.0,US,1701493249
253,mount gambier,-37.8333,140.7667,17.900000000000034,54,52,4.75,AU,1701493250
254,itacare,-14.2775,-38.9967,24.29000000000002,87,54,2.98,BR,1701493251
255,ola,59.5833,151.2833,-14.919999999999959,89,100,3.15,RU,1701493253
256,beardstown,40.0176,-90.4243,5.340000000000032,88,100,0.45,US,1701493254
257,moyynkum,44.2914,72.9469,5.900000000000034,63,100,1.66,KZ,1701493255
258,libenge,3.65,18.6333,22.27000000000004,91,47,0.87,CD,1701493255
259,chenzhou,25.8,113.0333,11.590000000000032,74,93,2.11,CN,1701493255
260,santa cruz,-17.8,-63.1667,26.700000000000045,78,40,6.17,BO,1701493215
261,tailai,46.3833,123.4,-7.409999999999968,68,5,4.63,CN,1701493256
262,weno,7.4515,151.8468,28.760000000000048,76,52,8.08,FM,1701493256
263,katsuura,35.1333,140.3,12.740000000000009,43,26,3.54,JP,1701493095
264,mathba,22.2855,89.9629,27.28000000000003,48,63,2.82,BD,1701493256
265,uturoa,-16.7333,-151.4333,27.100000000000023,81,23,8.21,PF,1701493240
266,qaqortoq,60.7167,-46.0333,-6.849999999999966,87,97,2.58,GL,1701493257
267,talen,23.5667,76.7167,23.390000000000043,64,0,4.56,IN,1701493257
268,bandar-e lengeh,26.5579,54.8807,21.060000000000002,73,0,2.06,IR,1701493257
269,new norfolk,-42.7826,147.0587,18.29000000000002,50,100,3.3,AU,1701493257
270,tidjikja,18.5564,-11.4271,23.379999999999995,14,90,3.31,MR,1701493257
271,altay,47.8667,88.1167,-0.5299999999999727,73,96,0.77,CN,1701493258
272,malone,44.8487,-74.2949,2.0500000000000114,98,100,1.14,US,1701493210
273,alor gajah,2.3804,102.2089,29.900000000000034,70,20,3.09,MY,1701493259
274,biddinghuizen,52.455,5.6931,-1.099999999999966,92,62,1.64,NL,1701493259
275,sanya,18.2431,109.505,29.090000000000032,58,40,9.0,CN,1701493260
276,azazga,36.7447,4.3722,11.680000000000007,86,85,3.0,DZ,1701493260
277,nema,57.5067,50.5011,-9.109999999999957,95,100,2.88,RU,1701493261
278,lensk,60.7253,114.9278,-15.529999999999973,92,100,0.93,RU,1701493261
279,pasni,25.2631,63.471,24.170000000000016,68,0,2.5,PK,1701493261
280,alaghsas,17.0187,8.0168,19.090000000000032,13,7,1.23,NE,1701493262
281,skeldon,5.8833,-57.1333,24.129999999999995,92,74,1.98,GY,1701493262
282,ulsteinvik,62.3432,5.8487,0.9700000000000273,73,98,1.34,NO,1701493263
283,yarkovo,57.4028,67.0786,-11.229999999999961,88,53,1.24,RU,1701493263
284,youngsville,30.0996,-91.9901,21.140000000000043,93,100,0.0,US,1701493264
285,happy valley-goose bay,53.3168,-60.3315,-2.829999999999984,86,100,3.09,CA,1701493216
286,kibara,-2.15,33.45,21.370000000000005,78,73,3.18,TZ,1701493265
287,recreo,-29.2818,-65.061,25.390000000000043,68,0,2.32,AR,1701493266
288,petatlan,17.5167,-101.2667,25.439999999999998,78,100,0.21,MX,1701493266
289,talnakh,69.4865,88.3972,-26.539999999999964,94,6,2.84,RU,1701493267
290,selkirk,50.1436,-96.8845,-4.9599999999999795,78,9,1.34,CA,1701493267
291,ashland,40.8167,-82.2665,8.920000000000016,98,100,4.38,US,1701493002
292,chonchi,-42.6128,-73.8092,5.560000000000002,94,11,1.57,CL,1701493268
293,sur,22.5667,59.5289,25.430000000000007,56,0,3.45,OM,1701493269
294,dudinka,69.4058,86.1778,-25.129999999999967,92,8,6.69,RU,1701493270
295,ballina,-28.8667,153.5667,32.10000000000002,43,18,3.47,AU,1701493270
296,san clemente del tuyu,-36.3569,-56.7235,16.100000000000023,94,100,3.3,AR,1701493271
297,ploudalmezeau,48.5333,-4.65,6.270000000000039,87,38,2.57,FR,1701492982
298,vengerovo,55.6848,76.7471,-5.989999999999952,94,100,4.15,RU,1701493272
299,cidade velha,14.9167,-23.6167,24.260000000000048,83,75,5.14,CV,1701493273
300,rumphi,-11.0186,33.8575,21.410000000000025,75,82,0.98,MW,1701493273
301,portland,45.5234,-122.6762,8.78000000000003,93,100,3.13,US,1701493080
302,mizhou,35.9947,119.3975,9.240000000000009,18,0,3.3,CN,1701493274
303,saint-jean-de-monts,46.7833,-2.0667,3.2000000000000455,80,64,3.18,FR,1701493275
304,olyokminsk,60.3736,120.4264,-21.619999999999976,90,100,1.82,RU,1701493275
305,abu al matamir,30.9102,30.1744,15.270000000000039,88,0,2.44,EG,1701493276
306,pospelikha,51.95,81.7667,0.9399999999999977,74,100,8.83,RU,1701493276
307,ambon,-3.6954,128.1814,32.18000000000001,100,40,3.6,ID,1701493277
308,kalmunai,7.4167,81.8167,26.860000000000014,82,100,8.53,LK,1701493277
309,prince rupert,54.3161,-130.3201,5.830000000000041,88,100,11.32,CA,1701493278
310,omutinskiy,56.4745,67.6709,-10.399999999999977,94,53,1.91,RU,1701493278
311,mili,6.0815,171.735,28.27000000000004,78,100,7.95,MH,1701493269
312,dom pedro,-4.4833,-44.45,23.850000000000023,87,52,1.37,BR,1701493279
313,bamiantong,44.9333,130.5333,-7.569999999999993,79,95,1.73,CN,1701493279
314,songjianghe,42.1859,127.479,-5.199999999999989,68,100,1.9,CN,1701493280
315,chernyshevskiy,63.0128,112.4714,-30.68999999999997,100,20,1.25,RU,1701493280
316,bechar,31.6167,-2.2167,10.180000000000007,20,48,0.0,DZ,1701493280
317,touros,-5.1989,-35.4608,26.870000000000005,75,93,7.36,BR,1701493281
318,geraldton,-28.7667,114.6,26.230000000000018,61,0,6.69,AU,1701493281
319,kapuskasing,49.4169,-82.4331,-6.949999999999989,86,100,2.06,CA,1701493281
320,san diego de la union,21.4667,-100.8667,16.010000000000048,65,100,3.32,MX,1701493282
321,orchard homes,46.8633,-114.0484,0.1500000000000341,86,97,1.34,US,1701493282
322,cravinhos,-21.3403,-47.7294,23.400000000000034,65,24,0.57,BR,1701493283
323,qeshm,26.9581,56.2719,23.930000000000007,65,0,0.57,IR,1701493283
324,luanda,-8.8368,13.2343,26.0,83,40,2.57,AO,1701493283
325,labuan,5.2767,115.2417,31.200000000000045,70,20,1.54,MY,1701493284
326,hamilton,39.1834,-84.5333,12.770000000000039,93,100,3.6,US,1701493269
327,kutum,14.2,24.6667,16.49000000000001,23,1,3.09,SD,1701493285
328,menongue,-14.6585,17.691,18.04000000000002,93,100,1.17,AO,1701493285
329,moab,38.5733,-109.5498,3.0500000000000114,85,69,2.02,US,1701492993
330,nagqu,31.5,92.0,-1.579999999999984,20,36,4.6,CN,1701493286
331,viedma,-40.8135,-62.9967,13.580000000000041,72,4,1.8,AR,1701493286
332,taulaga,-11.0553,-171.0883,26.77000000000004,84,100,7.82,AS,1701493287
333,barra de santo antonio,-9.4047,-35.5072,24.600000000000023,85,89,3.76,BR,1701493287
334,crane,31.3974,-102.3501,12.480000000000018,41,96,1.32,US,1701493147
335,fortuna,40.5982,-124.1573,10.189999999999998,97,40,4.02,US,1701493288
336,salekhard,66.53,66.6019,-20.22999999999999,98,100,1.58,RU,1701493289
337,al jawf,29.5,38.75,13.78000000000003,50,0,3.17,SA,1701493289
338,sanibel,26.449,-82.0223,23.03000000000003,92,97,0.89,US,1701493289
339,kuanda,56.3161,116.0806,-14.829999999999984,91,99,0.4,RU,1701493079
340,dunedin,-45.8742,170.5036,14.890000000000043,78,100,2.68,NZ,1701493290
341,khandyga,62.6667,135.6,-35.359999999999985,100,100,1.02,RU,1701493290
342,hermiston,45.8404,-119.2895,7.360000000000014,76,20,4.12,US,1701493291
343,imbituba,-28.24,-48.6703,24.920000000000016,99,49,1.35,BR,1701493291
344,callao,-12.0667,-77.15,21.510000000000048,77,40,5.14,PE,1701493292
345,saint-paul,-21.0096,55.2707,27.060000000000002,79,100,0.64,RE,1701493292
346,souillac,-20.5167,57.5167,26.210000000000036,83,75,1.03,MU,1701493292
347,yoichi,43.2039,140.7703,2.410000000000025,66,87,6.2,JP,1701493293
348,kidal,18.4411,1.4078,23.29000000000002,19,77,2.75,ML,1701493020
349,makinsk,52.6292,70.4169,-1.1599999999999682,92,100,7.08,KZ,1701493293
350,papao,-17.75,-149.55,28.82000000000005,76,4,6.36,PF,1701493293
351,kuching,1.55,110.3333,31.120000000000005,70,40,1.54,MY,1701493070
352,elkins,38.9259,-79.8467,14.150000000000034,91,100,3.6,US,1701493294
353,remire-montjoly,4.9167,-52.2667,23.02000000000004,100,0,0.0,GF,1701493295
354,island harbour,50.724,-1.2758,-0.46999999999997044,94,44,2.85,GB,1701493295
355,pucallpa,-8.3791,-74.5539,25.02000000000004,100,40,1.03,PE,1701493295
356,kristinestad,62.2743,21.376,-9.389999999999986,96,100,2.19,FI,1701493296
357,omagari,39.45,140.4833,1.420000000000016,90,97,2.36,JP,1701493296
358,kavieng,-2.5744,150.7967,27.640000000000043,76,99,1.42,PG,1701493297
359,medicine hat,50.0501,-110.6683,-2.759999999999991,66,0,4.63,CA,1701493141
360,viqueque,-8.8673,126.3658,36.160000000000025,38,17,2.27,TL,1701493297
361,baranovichi,53.1327,26.0139,-4.229999999999961,96,100,1.81,BY,1701493207
362,gereida,11.2811,25.1414,23.760000000000048,23,8,7.51,SD,1701493298
363,chamical,-30.36,-66.314,23.189999999999998,70,4,3.57,AR,1701493299
364,al kharijah,25.4514,30.5464,13.980000000000018,74,0,3.08,EG,1701493299
365,cheremushki,52.8356,91.3944,1.5900000000000318,90,100,1.05,RU,1701493300
366,timimoun,29.2639,0.231,13.210000000000036,21,0,3.09,DZ,1701493302
367,yuzhno-kurilsk,44.0306,145.8556,1.32000000000005,64,53,4.62,RU,1701493303
368,minas de marcona,-15.2119,-75.1103,14.400000000000034,86,37,4.31,PE,1701493303
369,cold lake,54.4502,-110.2017,-10.029999999999973,92,75,1.03,CA,1701493304
370,udachny,66.4167,112.4,-31.419999999999987,74,100,2.36,RU,1701493166
371,puerto aysen,-45.4,-72.7,2.5,99,96,2.6,CL,1701493253
372,val-d'or,48.1002,-77.7828,-12.949999999999989,92,100,0.0,CA,1701493045
373,port hedland,-20.3167,118.5667,31.03000000000003,58,0,8.75,AU,1701493305
374,durango,24.8333,-104.8333,9.100000000000023,76,44,2.88,MX,1701493216
375,usinsk,65.9939,57.5281,-11.069999999999993,96,100,3.13,RU,1701493306
376,tobelo,1.7284,128.0095,29.810000000000002,69,36,2.28,ID,1701493307
377,halfaya,35.2599,36.6057,10.890000000000043,70,0,0.37,SY,1701493307
378,port arthur,38.8,121.2667,6.1200000000000045,45,2,5.42,CN,1701493307
379,santa elena de uairen,4.6167,-61.1333,20.79000000000002,75,79,1.81,VE,1701493309
380,okhotsk,59.3833,143.3,-27.139999999999986,91,14,3.92,RU,1701493309
381,brookings,44.3114,-96.7984,-3.819999999999993,76,75,3.6,US,1701493310
382,jogeva,58.7467,26.3939,-12.099999999999966,99,94,0.93,EE,1701493310
383,fisterra,42.9049,-9.2629,8.189999999999998,65,39,5.93,ES,1701493310
384,alofi,-19.0595,-169.9187,27.939999999999998,69,20,4.12,NU,1701493103
385,vysokaya gora,55.9128,49.3017,-4.899999999999977,96,100,4.98,RU,1701493311
386,galle,6.0367,80.217,26.150000000000034,84,100,5.25,LK,1701493311
387,yigo village,13.5361,144.8886,28.74000000000001,85,75,7.72,GU,1701493313
388,plastun,44.7561,136.2939,-2.6399999999999864,45,49,3.22,RU,1701493313
389,newport,51.5877,-2.9984,-0.8599999999999568,89,8,0.74,GB,1701493206
390,magadan,59.5667,150.8,-15.259999999999991,92,100,3.44,RU,1701493314
391,beya,53.0533,90.9139,-0.18999999999999773,84,99,2.24,RU,1701493315
392,mahibadhoo,3.7833,72.9667,28.450000000000045,73,38,3.0,MV,1701493315
393,jayapura,-2.5333,140.7,32.660000000000025,66,75,2.93,ID,1701493315
394,las khorey,11.1595,48.1967,25.670000000000016,66,16,3.74,SO,1701493315
395,sanctuary point,-35.1114,150.629,22.640000000000043,81,74,2.39,AU,1701493316
396,aioun,16.6614,-9.6149,23.78000000000003,11,41,4.47,MR,1701493316
397,zhovkva,50.0583,23.9726,-1.2399999999999523,98,100,4.65,UA,1701493316
398,monovar,38.4381,-0.8406,10.870000000000005,73,0,7.79,ES,1701493317
399,kimbo,10.4,-13.55,23.600000000000023,85,72,0.81,GN,1701493317
400,burang,30.25,81.1667,-3.579999999999984,32,0,2.97,CN,1701493317
401,taco pozo,-25.6167,-63.2833,32.410000000000025,40,98,4.67,AR,1701493317
402,antsiranana,-12.2787,49.2917,27.420000000000016,78,20,4.12,MG,1701493155
403,bamboo flat,11.7,92.7167,27.05000000000001,89,75,4.12,IN,1701493318
404,nyandoma,61.669,40.1991,-17.47999999999999,99,99,0.23,RU,1701493319
405,quellon,-43.1167,-73.6167,4.5400000000000205,87,11,3.4,CL,1701493319
406,angarsk,52.5367,103.8864,-9.599999999999966,81,95,0.97,RU,1701493040
407,sufalat sama'il,23.3167,58.0167,23.80000000000001,54,0,0.29,OM,1701493320
408,sao joao da barra,-21.6403,-41.0511,23.30000000000001,93,4,1.61,BR,1701493320
409,zhangye,38.9342,100.4517,3.0200000000000387,20,78,0.68,CN,1701493321
410,ginir,7.1333,40.7,16.74000000000001,50,17,2.87,ET,1701493321
411,lashio,22.9333,97.75,24.400000000000034,60,86,0.81,MM,1701493322
412,xucheng,20.35,110.1288,21.04000000000002,75,99,8.37,CN,1701493322
413,suntar,62.1444,117.6319,-28.17999999999998,99,90,0.65,RU,1701493322
414,qui nhon,13.7667,109.2333,25.80000000000001,91,90,6.91,VN,1701493323
415,nadi,-17.8,177.4167,30.0,70,40,5.66,FJ,1701493324
416,vernon,50.2581,-119.2691,0.34000000000003183,80,85,1.03,CA,1701493204
417,kharp,66.8014,65.8081,-16.789999999999964,99,100,0.99,RU,1701493325
418,sansepolcro,43.5747,12.143,14.410000000000025,69,100,8.06,IT,1701493325
419,harper,4.375,-7.7169,25.82000000000005,88,8,3.45,LR,1701493325
420,choele choel,-39.2667,-65.6833,18.160000000000025,32,30,7.8,AR,1701493148
421,dryden,49.7833,-92.7503,-3.839999999999975,80,100,3.6,CA,1701493286
422,la'ie,21.6477,-157.9253,23.980000000000018,85,97,2.25,US,1701493111
423,lubango,-14.9172,13.4925,16.920000000000016,94,100,2.57,AO,1701493167
424,bubaque,11.2833,-15.8333,27.870000000000005,63,82,4.79,GW,1701493326
425,belmonte,-15.8631,-38.8828,24.760000000000048,87,98,3.93,BR,1701493327
426,blackwater,-23.5833,148.8833,32.47000000000003,46,97,2.99,AU,1701493328
427,tsiombe,-25.3,45.4833,22.110000000000014,58,93,7.08,MG,1701493328
428,silver city,32.7701,-108.2803,2.6000000000000227,91,40,4.12,US,1701493153
429,glendive,47.1053,-104.7125,-2.2099999999999795,80,100,3.09,US,1701493247
430,el gouna,27.3942,33.6782,18.05000000000001,76,0,6.62,EG,1701493329
431,iskateley,67.6803,53.1512,-6.659999999999968,96,100,2.24,RU,1701493195
432,raja,8.4596,25.678,26.310000000000002,44,59,0.96,SS,1701493329
433,afaahiti,-17.75,-149.2833,27.930000000000007,82,34,6.69,PF,1701493330
434,posto fiscal rolim de moura,-13.0833,-62.2667,23.08000000000004,92,87,0.9,BR,1701493330
435,larkird,35.4894,66.6641,9.54000000000002,33,41,0.99,AF,1701493330
436,najran,17.4924,44.1277,13.360000000000014,42,30,1.08,SA,1701493331
437,tabou,4.423,-7.3528,25.78000000000003,88,12,3.56,CI,1701493331
438,burgersdorp,-30.9977,26.3286,24.27000000000004,28,77,2.46,ZA,1701493331
439,newborough,52.6389,-0.2233,-1.089999999999975,97,100,3.09,GB,1701493332
440,kununurra,-15.7667,128.7333,40.99000000000001,27,67,3.6,AU,1701493332
441,broome,42.2506,-75.833,5.560000000000002,95,100,2.68,US,1701493229
442,kruisfontein,-34.0033,24.7314,18.27000000000004,71,96,4.29,ZA,1701493109
443,ad-damazin,11.7891,34.3592,26.860000000000014,31,22,1.2,SD,1701493333
444,al hazm,16.1641,44.7769,18.850000000000023,36,75,2.12,YE,1701493333
445,lamar,33.6668,-95.5836,5.360000000000014,98,0,2.57,US,1701493333
446,tshabong,-26.05,22.45,26.439999999999998,22,2,1.79,BW,1701493334
447,laojunmiao,39.8333,97.7333,1.3900000000000432,16,99,1.81,CN,1701493334
448,cheremukhovo,60.3484,59.9851,-10.579999999999984,96,100,1.79,RU,1701493335
449,archangelos,36.2149,28.1149,14.990000000000009,84,34,2.42,GR,1701493336
450,cairo montenotte,44.4031,8.2746,12.900000000000034,81,91,0.98,IT,1701493337
451,paracuru,-3.41,-39.0306,27.840000000000032,81,14,3.95,BR,1701493337
452,midland,31.9974,-102.0779,12.03000000000003,48,0,2.06,US,1701493215
453,guiuan,11.0333,125.7247,28.180000000000007,82,100,7.49,PH,1701493338
454,safranbolu,41.2508,32.6942,8.340000000000032,85,32,1.34,TR,1701493338
455,puerto deseado,-47.7503,-65.8938,11.220000000000027,35,99,7.01,AR,1701493308
456,yilan,24.757,121.753,19.920000000000016,92,100,2.23,TW,1701493339
457,san antonio de pale,-1.4014,5.6325,26.150000000000034,82,100,2.08,GQ,1701493340
458,taoudenni,22.6783,-3.9836,19.670000000000016,14,11,0.95,ML,1701493341
459,east gwillimbury,44.1334,-79.4163,1.420000000000016,92,100,1.6,CA,1701493341
460,ouesso,1.6136,16.0517,20.99000000000001,99,98,0.97,CG,1701493342
461,rio verde,21.9333,-99.9833,22.24000000000001,60,100,2.17,MX,1701493342
462,tosontsengel,48.7567,98.2839,-11.799999999999955,76,92,1.24,MN,1701493343
463,camana,-16.6228,-72.7111,19.49000000000001,84,68,3.57,PE,1701493343
464,rudsar,37.1376,50.288,10.990000000000009,68,2,2.61,IR,1701493344
465,cooper's town,26.8667,-77.5167,24.950000000000045,88,90,7.21,BS,1701493344
466,sengkang,-4.1279,120.0297,34.950000000000045,49,79,1.36,ID,1701493344
467,tucuma,-0.1833,-50.05,24.560000000000002,93,7,2.5,BR,1701493328
468,robertsport,6.7533,-11.3686,27.100000000000023,84,83,4.08,LR,1701493345
469,neftegorsk,52.802,51.166,-1.4499999999999886,99,100,6.63,RU,1701493346
470,iranshahr,27.2025,60.6848,21.189999999999998,37,0,2.06,IR,1701493346
471,manthani,18.65,79.6667,28.310000000000002,54,81,2.1,IN,1701493346
472,guozhen,34.3659,107.359,10.75,30,44,0.75,CN,1701493347
473,rakvere,59.3464,26.3558,-5.7099999999999795,92,97,2.15,EE,1701493347
474,choyr,46.3611,108.3611,-6.1299999999999955,70,3,0.55,MN,1701493348
475,agnibilekrou,7.1344,-3.2047,21.470000000000027,98,18,0.55,CI,1701493348
476,pato branco,-26.2286,-52.6706,20.53000000000003,93,54,1.25,BR,1701493349
477,hamtramck,42.3928,-83.0496,6.160000000000025,94,100,2.57,US,1701493349
478,miyaly,48.8844,53.7836,5.860000000000014,75,100,11.52,KZ,1701493350
479,arkhangel'sk,64.5401,40.5433,-7.939999999999998,92,100,1.0,RU,1701493350
480,kingscliff,-28.2667,153.5667,33.30000000000001,61,9,6.69,AU,1701493352
481,merizo village,13.2658,144.6691,29.430000000000007,86,72,9.36,GU,1701493352
482,nuuk,64.1835,-51.7216,-6.269999999999982,91,100,2.54,GL,1701493208
483,polyarnyy,69.1989,33.4478,-14.21999999999997,98,95,2.75,RU,1701493075
484,lorengau,-2.0226,147.2712,28.470000000000027,76,97,2.95,PG,1701493353
485,sayreville,40.4593,-74.361,9.080000000000041,81,100,2.62,US,1701493354
486,medina del campo,41.3124,-4.9141,2.580000000000041,94,6,3.76,ES,1701493356
487,ciudad lazaro cardenas,17.9583,-102.2,24.930000000000007,78,100,1.72,MX,1701493235
488,gibsons,49.3997,-123.5027,7.0,95,100,0.89,CA,1701493357
489,puerto baquerizo moreno,-0.9,-89.6,24.100000000000023,83,86,6.3,EC,1701493357
490,yokadouma,3.5167,15.05,20.420000000000016,97,91,0.37,CM,1701493358
491,walvis bay,-22.9575,14.5053,17.53000000000003,88,98,5.14,NA,1701493358
492,ceeldheer,3.8488,47.1806,26.600000000000023,64,100,8.23,SO,1701493359
493,ketchikan,55.3422,-131.6461,5.990000000000009,97,100,4.72,US,1701493359
494,alamosa,37.4695,-105.87,-8.009999999999991,79,0,2.57,US,1701493359
495,praia da vitoria,38.7333,-27.0667,17.090000000000032,88,20,10.72,PT,1701493360
496,bandon,51.7469,-8.7425,1.7700000000000387,91,99,1.69,IE,1701493360
497,kone,-21.0595,164.8658,30.230000000000018,54,14,1.71,NC,1701493361
498,bafq,31.6128,55.4107,14.100000000000023,34,26,0.37,IR,1701493361
499,mar del plata,-38.0023,-57.5575,17.27000000000004,93,0,1.54,AR,1701493167
500,namie,37.4833,141.0,11.660000000000025,54,19,4.94,JP,1701493361
501,fuerte olimpo,-21.0415,-57.8738,27.32000000000005,54,15,2.44,PY,1701493361
502,ulan bator,47.9077,106.8832,-13.92999999999995,66,16,1.0,MN,1701493312
503,andreapol',56.6513,32.2664,-10.919999999999959,98,96,2.05,RU,1701493362
504,lagoa,39.05,-27.9833,16.310000000000002,85,100,9.28,PT,1701493363
505,aromashevo,56.8602,68.6375,-10.620000000000005,94,69,2.22,RU,1701493363
506,zahir pir,28.8124,70.524,22.960000000000036,38,0,2.58,PK,1701493363
507,kenai,60.5544,-151.2583,-3.8100000000000023,90,99,2.93,US,1701493364
508,vadso,70.0744,29.7487,-8.909999999999968,86,100,2.57,NO,1701493364
509,bentiu,9.2333,29.8333,26.33000000000004,36,1,0.54,SS,1701493364
510,namdrik,5.5994,168.1028,28.189999999999998,79,100,7.78,MH,1701493365
511,plymouth,41.8334,-70.8328,9.520000000000039,91,100,3.09,US,1701493356
512,sandnessjoen,66.0217,12.6316,-3.5399999999999636,74,91,4.3,NO,1701493366
513,tindouf,27.6711,-8.1474,15.25,88,0,4.12,DZ,1701493366
514,palmer,42.1584,-72.3287,7.7000000000000455,83,100,2.06,US,1701493367
515,pacific grove,36.6177,-121.9166,11.060000000000002,82,0,1.54,US,1701493367
516,port nelson,23.6333,-74.8333,27.0,76,24,8.82,BS,1701493367
517,nizhniy odes,63.6445,54.856,-7.199999999999989,96,100,2.5,RU,1701493368
518,arinos,-15.9169,-46.1056,24.49000000000001,66,50,1.34,BR,1701493368
519,piton saint-leu,-21.2196,55.3151,25.060000000000002,61,75,1.54,RE,1701493369
520,blejoi,45.0,26.0167,11.189999999999998,88,59,3.34,RO,1701493369
521,woolgoolga,-30.1106,153.2007,24.470000000000027,71,83,4.22,AU,1701493369
522,international falls,48.6011,-93.411,-5.539999999999964,82,18,0.0,US,1701493369
523,yamba,-5.9,22.3,20.600000000000023,99,100,0.67,CD,1701493369
524,wlodawa,51.55,23.55,-2.8999999999999773,92,100,1.84,PL,1701493369
525,ciudad de huajuapan de leon,17.8,-97.7667,18.560000000000002,62,100,1.0,MX,1701493370
526,srinagar,34.0833,74.8167,7.840000000000032,60,20,0.83,IN,1701493100
527,la paz,-16.5,-68.15,8.990000000000009,89,75,1.03,BO,1701493370
528,swift current,50.2834,-107.8014,-4.5499999999999545,86,75,6.69,CA,1701493260
529,east end,34.5507,-92.341,8.840000000000032,93,1,2.41,US,1701493371
530,agat village,13.3886,144.6585,29.640000000000043,84,40,8.75,GU,1701493372
531,riachao das neves,-11.7461,-44.91,26.410000000000025,31,97,0.62,BR,1701493373
532,mananara,-16.1667,49.7667,26.720000000000027,79,98,0.23,MG,1701493373
533,baise city,23.8997,106.6133,14.970000000000027,78,100,1.06,CN,1701493373
534,aldinga beach,-35.2793,138.4604,22.920000000000016,55,32,5.91,AU,1701493373
535,shubarshi,48.5872,57.1869,3.2100000000000364,96,100,6.27,KZ,1701493374
536,kenora,49.8167,-94.4337,-5.4599999999999795,93,40,2.57,CA,1701493096
537,post,33.1909,-101.3782,10.270000000000039,39,70,4.12,US,1701493375
538,necochea,-38.5473,-58.7368,16.620000000000005,90,5,2.76,AR,1701493224
539,safford,32.834,-109.7076,7.28000000000003,91,40,0.0,US,1701493375
540,katsuren-haebaru,26.3369,127.8719,20.220000000000027,56,99,4.87,JP,1701493375
541,maragogi,-9.0122,-35.2225,25.03000000000003,86,99,3.5,BR,1701493172
542,yaren,-0.5472,166.916,27.310000000000002,79,100,2.17,NR,1701493376
543,aral,40.5156,81.2636,5.580000000000041,27,1,1.44,CN,1701493376
544,bria,6.5423,21.9863,23.360000000000014,74,81,0.5,CF,1701493218
545,leiyang,26.4024,112.8591,9.150000000000034,76,99,1.62,CN,1701493376
546,cill airne,52.05,-9.5167,2.5200000000000387,86,89,1.87,IE,1701493377
547,mercedes,-34.6515,-59.4307,17.140000000000043,92,30,0.47,AR,1701493377
548,fort st. john,56.2499,-120.8529,-8.060000000000002,86,20,2.57,CA,1701493377
549,baldivis,-32.3299,115.8218,28.310000000000002,67,74,4.02,AU,1701493378
550,shakawe,-18.3667,21.85,23.53000000000003,62,86,2.68,BW,1701493379
551,hammerfest,70.6634,23.6821,-6.75,73,84,3.09,NO,1701493182
552,karratha,-20.7377,116.8463,30.29000000000002,52,0,9.25,AU,1701493379
553,acapulco de juarez,16.8634,-99.8901,26.49000000000001,76,100,1.75,MX,1701493227
554,noosa heads,-26.3833,153.15,28.53000000000003,67,51,9.08,AU,1701493379
555,magdagachi,53.45,125.8,-11.419999999999959,57,98,1.45,RU,1701493379
556,nar'yan-mar,67.6713,53.087,-6.609999999999957,96,100,2.24,RU,1701493236
557,andergrove,-21.0833,149.1833,28.189999999999998,74,87,5.93,AU,1701493380
558,talcahuano,-36.7167,-73.1167,11.82000000000005,94,100,5.14,CL,1701493380
559,kukmor,56.1855,50.8944,-9.129999999999995,96,100,4.5,RU,1701493381
560,grindsted,55.754,8.9123,-6.75,92,31,0.51,DK,1701493381
561,ilhabela,-23.7781,-45.3581,22.03000000000003,92,87,1.07,BR,1701493381
562,kankan,10.3854,-9.3057,25.400000000000034,41,63,1.27,GN,1701493381
563,baskil,38.5679,38.8238,-3.089999999999975,79,86,0.13,TR,1701493382
564,bay roberts,47.5999,-53.2648,5.860000000000014,96,100,2.24,CA,1701493382
565,rockhampton,-23.3833,150.5,35.94,34,100,5.66,AU,1701493214
566,swakopmund,-22.6833,14.5333,17.470000000000027,85,97,1.34,NA,1701493383
567,lauro de freitas,-12.8944,-38.3272,26.010000000000048,83,20,5.14,BR,1701493363
568,timbiqui,2.7717,-77.6654,24.060000000000002,96,62,2.01,CO,1701493384
569,sarina,-21.4333,149.2167,30.900000000000034,56,84,4.05,AU,1701493385
570,lodwar,3.1191,35.5973,29.75,39,11,6.16,KE,1701493385
571,daoukro,7.0591,-3.9631,21.33000000000004,94,8,0.25,CI,1701493386
572,along,28.1667,94.7667,21.53000000000003,42,99,0.72,IN,1701493386
573,oltinko'l,40.8011,72.1634,11.140000000000043,48,70,1.16,UZ,1701493387
574,bakori,11.5544,7.4243,19.200000000000045,19,35,3.64,NG,1701493387
575,timmins,48.4669,-81.3331,-16.099999999999966,85,75,2.06,CA,1701493115
576,suleja,9.1758,7.1808,23.02000000000004,23,43,3.08,NG,1701493388
577,new london,41.4834,-72.0662,8.860000000000014,96,100,0.0,US,1701493388
578,sarny,51.338,26.6019,-3.1499999999999773,96,100,0.59,UA,1701493388
